name,crs,lat,long
Abbey Wood,ABW,51.490719,0.120343
Aber,ABE,51.575363,-3.23089
Abercynon,ACY,51.64262,-3.329549
Aberdare,ABA,51.715019,-3.44313
Aberdeen,ABD,57.143127,-2.097464
Aberdour,AUR,56.054646,-3.300575
Aberdovey,AVY,52.543934,-4.057118
Abererch,ABH,52.898567,-4.37423
Abergavenny,AGV,51.81665,-3.009679
Abergele & Pensarn,AGL,53.294758,-3.581343
Aberystwyth,AYW,52.414017,-4.081946
Accrington,ACR,53.753193,-2.370016
Achanalt,AAT,57.609921,-4.914243
Achnasheen,ACN,57.579205,-5.072421
Achnashellach,ACH,57.482697,-5.333001
Acklington,ACK,55.307129,-1.651816
Acle,ACL,52.634647,1.543981
Acocks Green,ACG,52.449291,-1.81898
Acton Bridge,ACB,53.265961,-2.602689
Acton Central,ACC,51.508717,-0.263601
Acton Main Line,AML,51.516865,-0.26762
Adderley Park,ADD,52.483505,-1.854184
Addiewell,ADW,55.843449,-3.60655
Addlestone,ASN,51.372414,-0.48571
Adisham,ADM,51.241352,1.199277
Adlington (Cheshire),ADC,53.319542,-2.133571
Adlington (Lancashire),ADL,53.612926,-2.603084
Adwick,AWK,53.572994,-1.181465
Aigburth,AIG,53.364614,-2.927041
Ainsdale,ANS,53.601818,-3.042691
Aintree,AIN,53.473995,-2.956687
Airbles,AIR,55.782504,-3.994447
Airdrie,ADR,55.864029,-3.982952
Albany Park,AYP,51.435745,0.126427
Albrighton,ALB,52.637917,-2.268913
Alderley Edge,ALD,53.303762,-2.236812
Aldermaston,AMT,51.402047,-1.136972
Aldershot,AHT,51.246151,-0.760657
Aldrington,AGT,50.836601,-0.182151
Alexandra Palace,AAP,51.598225,-0.120129
Alexandra Parade,AXP,55.863724,-4.211465
Alexandria,ALX,55.98513,-4.577534
Alfreton,ALF,53.100414,-1.369689
Allens West,ALW,54.524128,-1.363418
Alloa,ALO,56.1179,-3.7872
Alness,ASS,57.694477,-4.249743
Alnmouth,ALM,55.392456,-1.636858
Alresford,ALR,51.853828,0.997114
Alsager,ASG,53.093054,-2.29861
Althorne,ALN,51.647526,0.753603
Althorpe,ALP,53.585262,-0.732558
Altnabreac,ABC,58.388439,-3.705279
Alton,AON,51.151947,-0.967658
Altrincham,ALT,53.3874,-2.347212
Alvechurch,ALV,52.346607,-1.967854
Ambergate,AMB,53.060501,-1.4807
Amberley,AMY,50.896507,-0.542446
Amersham,AMR,51.67439,-0.60613
Ammanford,AMF,51.795933,-3.996783
Ancaster,ANC,52.987888,-0.535596
Anderston,AND,55.859924,-4.271969
Andover,ADV,51.212048,-1.493167
Anerley,ANZ,51.41163,-0.064348
Angmering,ANG,50.816704,-0.489559
Annan,ANN,54.98386,-3.262603
Anniesland,ANL,55.889553,-4.321684
Ansdell & Fairhaven,AFV,53.741558,-2.993077
Apperley Bridge,APY,53.84138,-1.703065
Appleby,APP,54.58032,-2.486692
Appledore (Kent),APD,51.032623,0.816826
Appleford,APF,51.639562,-1.242375
Appley Bridge,APB,53.579029,-2.718906
Apsley,APS,51.732712,-0.463568
Arbroath,ARB,56.559628,-2.588928
Ardgay,ARD,57.881119,-4.362604
Ardlui,AUI,56.302025,-4.721712
Ardrossan Harbour,ADS,55.640854,-4.823461
Ardrossan South Beach,ASB,55.640495,-4.799593
Ardrossan Town,ADN,55.639313,-4.812212
Ardwick,ADK,53.47134,-2.213893
Argyle Street,AGS,55.855938,-4.244574
Arisaig,ARG,56.912617,-5.839141
Arlesey,ARL,52.025938,-0.266178
Armadale,ARM,55.88639,-3.68504
Armathwaite,AWT,54.809611,-2.77209
Arnside,ARN,54.202114,-2.827783
Arram,ARR,53.884567,-0.426833
Arrochar & Tarbet,ART,56.204021,-4.722822
Arundel,ARU,50.848003,-0.546796
Ascot,ACT,51.406185,-0.675827
Ascott-Under-Wychwood,AUW,51.867376,-1.564136
Ash,ASH,51.249222,-0.711856
Ash Vale,AHV,51.272709,-0.721247
Ashburys,ABY,53.471761,-2.194991
Ashchurch for Tewkesbury,ASC,51.997158,-2.10921
Ashfield,ASF,55.889214,-4.2433
Ashford International,AFK,51.14335294,0.875167251
Ashford Surrey,AFS,51.436047,-0.469229
Ashley,ASY,53.355984,-2.341029
Ashtead,AHD,51.317822,-0.308126
Ashton-Under-Lyne,AHN,53.491264,-2.093415
Ashurst Kent,AHS,51.128601,0.152298
Ashurst New Forest,ANF,50.888865,-1.525097
Ashwell & Morden,AWM,52.030586,-0.10934
Askam,ASK,54.189049,-3.204545
Aslockton,ALK,52.951351,-0.898541
Aspatria,ASP,54.759338,-3.331752
Aspley Guise,APG,52.020725,-0.631519
Aston,AST,52.505104,-1.871788
Atherstone,ATH,52.578949,-1.552808
Atherton,ATN,53.528817,-2.478683
Attadale,ATT,57.394871,-5.456549
Attenborough,ATB,52.906322,-1.231262
Attleborough,ATL,52.514214,1.022719
Auchinleck,AUK,55.47031,-4.295389
Audley End,AUD,52.004398,0.20719
Aughton Park,AUG,53.55447,-2.895095
Aviemore,AVM,57.18914,-3.828348
Avoncliff,AVF,51.339596,-2.281342
Avonmouth,AVN,51.500194,-2.699332
Axminster,AXM,50.778976,-3.005613
Aylesbury,AYS,51.813868,-0.815048
Aylesbury Vale Parkway,AVP,51.8327,-0.8623
Aylesford,AYL,51.301384,0.465964
Aylesham,AYH,51.227185,1.209682
Ayr,AYR,55.458248,-4.626878
Bache,BAC,53.209312,-2.892386
Baglan,BAJ,51.61549,-3.811182
Bagshot,BAG,51.364964,-0.688501
Baildon,BLD,53.849682,-1.753717
Baillieston,BIO,55.844761,-4.11454
Balcombe,BAB,51.05624,-0.137881
Baldock,BDK,51.993156,-0.188106
Balham,BAL,51.443169,-0.152403
Balloch Central,BHC,56.002983,-4.583539
Balmossie,BSI,56.475548,-2.83764
Bamber Bridge,BMB,53.726772,-2.660793
Bamford,BAM,53.338985,-1.689078
Banavie,BNV,56.84338,-5.095477
Banbury,BAN,52.060925,-1.327541
Bangor (Gwynedd),BNG,53.222902,-4.135505
Bank Hall,BAH,53.437357,-2.987509
Banstead,BAD,51.329922,-0.214384
Barassie,BSS,55.5611,-4.651181
Bardon Mill,BLL,54.974636,-2.349922
Bare Lane,BAR,54.074473,-2.835331
Bargeddie,BGI,55.851776,-4.071789
Bargoed,BGD,51.692268,-3.229717
Barking,BKG,51.539982,0.080804
Barking Riverside,BGV,51.519108,0.114764
Barlaston,BRT,52.942856,-2.168118
Barming,BMG,51.284904,0.479428
Barmouth,BRM,52.72287,-4.056641
Barnehurst,BNH,51.464798,0.160885
Barnes Bridge,BNI,51.471676,-0.252051
Barnes,BNS,51.467014,-0.240711
Barnetby,BTB,53.574219,-0.409679
Barnham,BAA,50.831135,-0.639627
Barnhill,BNL,55.877895,-4.223463
Barnsley,BNY,53.553978,-1.477688
Barnstaple,BNP,51.073532,-4.064032
Barnt Green,BTG,52.361328,-1.994098
Barrhead,BRR,55.804535,-4.396411
Barrhill,BRL,55.097031,-4.781834
Barrow Haven,BAV,53.697128,-0.391427
Barrow Upon Soar,BWS,52.750244,-1.14956
Barrow-In-Furness,BIF,54.118879,-3.22614
Barry Docks,BYD,51.402393,-3.260749
Barry Island,BYI,51.392361,-3.273405
Barry Links,BYL,56.493206,-2.745444
Barry,BRY,51.396729,-3.285023
Barton-On-Humber,BAU,53.688824,-0.443233
Basildon,BSO,51.568672,0.457309
Basingstoke,BSK,51.26804,-1.086896
Bat & Ball,BBL,51.289703,0.194258
Bath Spa,BTH,51.378059,-2.356302
Bathgate,BHG,55.898678,-3.644019
Batley,BTL,53.709129,-1.622734
Battersby,BTT,54.457687,-1.092945
Battersea Park,BAK,51.477272,-0.148151
Battle,BAT,50.91312,0.495169
Battlesbridge,BLB,51.624805,0.565826
Bayford,BAY,51.758808,-0.096074
Beaconsfield,BCF,51.611141,-0.643644
Bearley,BER,52.244252,-1.750259
Bearsden,BRN,55.917202,-4.332945
Bearsted,BSD,51.275589,0.57786
Beasdale,BSL,56.899624,-5.763864
Beaulieu Road,BEU,50.854206,-1.505586
Beauly,BEL,57.478,-4.4698
Bebington,BEB,53.357651,-3.003659
Beccles,BCC,52.458481,1.569547
Beckenham Hill,BEC,51.424767,-0.016497
Beckenham Junction,BKJ,51.411446,-0.027144
Bedford St Johns,BSJ,52.129299,-0.467348
Bedford,BDM,52.136175,-0.47945
Bedhampton,BDH,50.853638,-0.996989
Bedminster,BMT,51.440037,-2.594184
Bedworth,BEH,52.479133,-1.46749
Bedwyn,BDW,51.379715,-1.599077
Beeston,BEE,52.920551,-1.207211
Bekesbourne,BKS,51.261051,1.136125
Belfast Central,BFC,54.5953,-5.9172
Belle Vue,BLV,53.462181,-2.180809
Bellgrove,BLG,55.857182,-4.22547
Bellingham,BGM,51.433826,-0.020421
Bellshill,BLH,55.816605,-4.025222
Belmont,BLM,51.344086,-0.199471
Belper,BLP,53.024555,-1.482622
Beltring,BEG,51.204651,0.403518
Belvedere,BVD,51.491936,0.152088
Bempton,BEM,54.128296,-0.180389
Ben Rhydding,BEY,53.926167,-1.797429
Benfleet,BEF,51.543964,0.561273
Bentham,BEN,54.115791,-2.510918
Bentley (Hampshire),BTY,51.180695,-0.868287
Bentley (South Yorkshire),BYK,53.542865,-1.148788
Bere Alston,BAS,50.485535,-4.200418
Bere Ferrers,BFE,50.450798,-4.181901
Berkhamsted,BKM,51.763638,-0.562498
Berkswell,BKW,52.395851,-1.642845
Bermuda Park,BEP,52.5029,-1.4726
Berney Arms,BYA,52.589745,1.63043
Berry Brow,BBW,53.622368,-1.797371
Berrylands,BRS,51.39838,-0.282157
Berwick (Sussex),BRK,50.840569,0.164587
Berwick-Upon-Tweed,BWK,55.774872,-2.01112
Bescar Lane,BES,53.623531,-2.914703
Bescot Stadium,BSC,52.562702,-1.991116
Betchworth,BTO,51.247993,-0.26771
Bethnal Green,BET,51.524406,-0.059747
Betws-Y-Coed,BYC,53.092056,-3.80091
Beverley,BEV,53.842281,-0.423855
Bexhill,BEX,50.840679,0.475678
Bexley,BXY,51.440742,0.148248
Bexleyheath,BXH,51.463493,0.133471
Bicester North,BCS,51.903401,-1.150517
Bicester Village,BIT,51.893429,-1.148393
Bickley,BKL,51.40033,0.044272
Bidston,BID,53.40913,-3.078589
Biggleswade,BIW,52.085068,-0.260294
Bilbrook,BBK,52.623695,-2.186101
Billericay,BIC,51.628834,0.418656
Billingham,BIL,54.606327,-1.278525
Billingshurst,BIG,51.014938,-0.450348
Bingham,BIN,52.954536,-0.952044
Bingley,BIY,53.84803,-1.837327
Birchgrove,BCG,51.521687,-3.203502
Birchington-On-Sea,BCH,51.377956,1.300781
Birchwood,BWD,53.41193,-2.52802
Birkbeck,BIK,51.403847,-0.056218
Birkdale,BDL,53.633514,-3.014742
Birkenhead Central,BKC,53.388244,-3.020897
Birkenhead Hamilton Square,BKQ,53.39469,-3.01365
Birkenhead North,BKN,53.404819,-3.057425
Birkenhead Park,BKP,53.397417,-3.03927
Birmingham International,BHI,52.450673,-1.725149
Birmingham Moor Street,BMO,52.479053,-1.892483
Birmingham New Street,BHM,52.478153,-1.898375
Birmingham Snow Hill,BSW,52.483555,-1.899833
Bishop Auckland,BIA,54.657482,-1.677545
Bishopbriggs,BBG,55.903927,-4.224958
Bishops Stortford,BIS,51.866692,0.16557
Bishopstone (Sussex),BIP,50.78,0.0824
Bishopton,BPT,55.902206,-4.501637
Bitterne,BTE,50.918343,-1.378279
Blackburn,BBN,53.746513,-2.479135
Blackheath,BKH,51.465706,0.008317
Blackhorse Road,BHO,51.586143,-0.04123
Blackpool North,BPN,53.822772,-3.049908
Blackpool Pleasure Beach,BPB,53.788154,-3.053856
Blackpool South,BPS,53.798611,-3.049081
Blackridge,BKR,55.88368,-3.75047
Blackrod,BLK,53.591522,-2.56954
Blackwater,BAW,51.33176,-0.777023
Blaenau Ffestiniog,BFF,52.996284,-3.944449
Blair Atholl,BLA,56.765614,-3.85025
Blairhill,BAI,55.866653,-4.04221
Blake Street,BKT,52.605054,-1.844888
Blakedown,BKD,52.406147,-2.176365
Blantyre,BLT,55.7976,-4.086466
Blaydon,BLO,54.965813,-1.712578
Bleasby,BSB,53.041649,-0.942469
Bletchley,BLY,51.995339,-0.736368
Bloxwich North,BWN,52.625637,-2.019173
Bloxwich,BLX,52.61853,-2.011783
Blundellsands & Crosby,BLN,53.487675,-3.039889
Blythe Bridge,BYB,52.968124,-2.066966
Bodmin Parkway,BOD,50.445822,-4.663026
Bodorgan,BOR,53.204292,-4.418067
Bognor Regis,BOG,50.786594,-0.676384
Bogston,BGS,55.937267,-4.713676
Bond Street,BDS,51.514,-0.15
Bolton,BON,53.573983,-2.425661
Bolton-On-Dearne,BTD,53.518986,-1.312217
Bookham,BKA,51.288334,-0.385224
Bootle (Cumbria),BOC,54.290249,-3.394818
Bootle New Strand,BNW,53.453357,-2.994676
Bootle Oriel Road,BOT,53.446559,-2.995791
Bordesley,BBS,52.471844,-1.877771
Borough Green & Wrotham,BRG,51.29295,0.306296
Borth,BRH,52.491001,-4.050236
Bosham,BOH,50.843262,-0.846655
Boston,BSN,52.978802,-0.030949
Botley,BOE,50.916748,-1.258809
Bottesford,BTF,52.944962,-0.796012
Bourne End,BNE,51.576538,-0.711287
Bournemouth,BMH,50.727478,-1.863955
Bournville,BRV,52.426937,-1.926434
Bow Brickhill,BWB,52.003475,-0.696154
Bow Street,BOW,52.439914,-4.03036
Bowes Park,BOP,51.607216,-0.119761
Bowling,BWG,55.931129,-4.493879
Box Hill & Westhumble,BXW,51.253376,-0.329128
Bracknell,BCE,51.413319,-0.751833
Bradford Forster Square,BDQ,53.79575,-1.752505
Bradford Interchange,BDI,53.791196,-1.749701
Bradford-On-Avon,BOA,51.345058,-2.252669
Brading,BDN,50.678509,-1.13801
Braintree,BTR,51.874989,0.558261
Braintree Freeport,BTP,51.869316,0.568258
Bramhall,BML,53.359959,-2.162249
Bramley (Hants),BMY,51.32988,-1.061265
Bramley (West Yorkshire),BLE,53.803532,-1.630985
Brampton (Cumbria),BMP,54.932655,-2.703814
Brampton (Suffolk),BRP,52.395397,1.543871
Branchton,BCN,55.940647,-4.803598
Brandon,BND,52.454479,0.624116
Branksome,BSM,50.727528,-1.919211
Braystones,BYS,54.43956,-3.543406
Bredbury,BDY,53.422939,-2.109823
Breich,BRC,55.827351,-3.668147
Brentford,BFD,51.487804,-0.309048
Brent Cross West,BCZ,51.5687,-0.2269
Brentwood,BRE,51.61322,0.30083
Bricket Wood,BWO,51.705223,-0.358846
Bridge of Allan,BEA,56.157429,-3.956166
Bridge of Orchy,BRO,56.515926,-4.763048
Bridgend,BGN,51.506481,-3.576296
Bridgeton,BDG,55.849968,-4.226668
Bridgwater,BWT,51.128025,-2.99031
Bridlington,BDT,54.084545,-0.200659
Brierfield,BRF,53.824535,-2.236959
Brigg,BGG,53.549137,-0.486094
Brighouse,BGH,53.698734,-1.781855
Brighton,BTN,50.829659,-0.141234
Brimsdown,BMD,51.655224,-0.031022
Brinnington,BNT,53.431881,-2.134097
Bristol Parkway,BPW,51.514061,-2.53461
Bristol Temple Meads,BRI,51.449093,-2.581349
Brithdir,BHD,51.710266,-3.228765
Briton Ferry,BNF,51.637852,-3.8193
Brixton,BRX,51.463245,-0.114164
Broad Green,BGE,53.40654,-2.893267
Broadbottom,BDB,53.440968,-2.01653
Broadstairs,BSR,51.360653,1.43317
Brockenhurst,BCU,50.816708,-1.574112
Brockholes,BHS,53.597149,-1.770299
Brockley,BCY,51.464684,-0.037797
Brockley Whins,BNR,54.958672,-1.462749
Bromborough Rake,BMR,53.329899,-2.989644
Bromborough,BOM,53.322146,-2.987058
Bromley Cross,BMC,53.613743,-2.409614
Bromley North,BMN,51.408894,0.017325
Bromley South,BMS,51.399887,0.018374
Bromsgrove,BMV,52.322662,-2.048379
Brondesbury Park,BSP,51.540896,-0.209955
Brondesbury,BSY,51.545574,-0.203063
Brookmans Park,BPK,51.720955,-0.204811
Brookwood,BKO,51.303215,-0.635753
Broome,BME,52.422745,-2.88524
Broomfleet,BMF,53.740131,-0.673328
Brora,BRA,58.012657,-3.853251
Brough,BUH,53.726452,-0.578255
Broughty Ferry,BYF,56.467213,-2.873153
Broxbourne,BXB,51.745712,-0.011157
Bruce Grove,BCV,51.592918,-0.06982
Brundall Gardens,BGA,52.623035,1.418896
Brundall,BDA,52.619747,1.439316
Brunstane,BSU,55.94143,-3.10064
Brunswick,BRW,53.382153,-2.975665
Bruton,BRU,51.111584,-2.447103
Bryn,BYN,53.499893,-2.647233
Buckenham,BUC,52.59816,1.47013
Buckley,BCK,53.163021,-3.055948
Bucknell,BUK,52.357525,-2.948551
Buckshaw Parkway,BSV,53.67283,-2.66447
Bugle,BGL,50.399979,-4.791736
Builth Road,BHR,52.169289,-3.427068
Bulwell,BLW,52.999625,-1.196115
Bures,BUE,51.97094,0.769021
Burgess Hill,BUG,50.953552,-0.127749
Burley Park,BUY,53.808743,-1.576277
Burley-In-Wharfedale,BUW,53.908112,-1.753363
Burnage,BNA,53.421205,-2.215896
Burneside,BUD,54.355305,-2.766231
Burnham,BNM,51.523538,-0.647335
Burnham-On-Crouch,BUU,51.633526,0.813459
Burnley Barracks,BUB,53.791237,-2.258014
Burnley Central,BNC,53.793776,-2.244644
Burnley Manchester Road,BYM,53.784962,-2.248883
Burnside,BUI,55.817123,-4.204029
Burntisland,BTS,56.057133,-3.233214
Burscough Bridge,BCB,53.60519,-2.841758
Burscough Junction,BCJ,53.598011,-2.840105
Bursledon,BUO,50.882858,-1.304835
Burton Joyce,BUJ,52.984047,-1.040698
Burton-On-Trent,BUT,52.805798,-1.64246
Bury St Edmunds,BSE,52.253727,0.713355
Busby,BUS,55.780109,-4.262551
Bush Hill Park,BHK,51.642365,-0.06916
Bushey,BSH,51.644669,-0.384806
Butlers Lane,BUL,52.592376,-1.838163
Buxted,BXD,50.990475,0.131651
Buxton,BUX,53.26058,-1.913086
Byfleet & New Haw,BFN,51.349869,-0.480714
Bynea,BYE,51.67276,-4.098396
Cadoxton,CAD,51.412422,-3.248087
Caergwrle,CGW,53.107922,-3.033069
Caerphilly,CPH,51.571903,-3.217805
Caersws,CWS,52.516262,-3.43387
Caldercruix,CAC,55.88791,-3.88978
Caldicot,CDT,51.58474,-2.760598
Caledonian Road & Barnsbury,CIR,51.543301,-0.115177
Calstock,CSK,50.497487,-4.208665
Cam & Dursley,CDU,51.71701,-2.366194
Camberley,CAM,51.335911,-0.745328
Camborne,CBN,50.210392,-5.297921
Cambridge,CBG,52.194519,0.137584
Cambridge Heath,CBH,51.53157,-0.057997
Cambridge North,CMB,52.223333,0.157778
Cambuslang,CBL,55.819458,-4.173839
Camden Road,CMD,51.541889,-0.139764
Camelon,CMO,56.006775,-3.817015
Cameron Bridge,CBX,56.189693,-3.046855
Canada Water,ZCW,51.49823,-0.05076
Canary Wharf,CWX,51.5061,-0.01578
Canley,CNL,52.399418,-1.547232
Cannock,CAO,52.686768,-2.022158
Canonbury,CNN,51.548747,-0.091614
Canterbury East,CBE,51.275261,1.075434
Canterbury West,CBW,51.284279,1.074608
Cantley,CNY,52.578907,1.512899
Capenhurst,CPU,53.260155,-2.942908
Carbis Bay,CBB,50.19746,-5.463815
Cardenden,CDD,56.141308,-3.261651
Cardiff Bay,CDB,51.466324,-3.166049
Cardiff Central,CDF,51.475193,-3.177794
Cardiff International Airport,XCF,51.396667,-3.343333
Cardiff Queen Street,CDQ,51.482464,-3.170782
Cardonald,CDO,55.853252,-4.340297
Cardross,CDR,55.960163,-4.652782
Carfin,CRF,55.806938,-3.956112
Cark,CAK,54.177513,-2.972746
Carlisle,CAR,54.890675,-2.933833
Carlton,CTO,52.964573,-1.078357
Carluke,CLU,55.730408,-3.848761
Carmarthen,CMN,51.853233,-4.305732
Carmyle,CML,55.834053,-4.161873
Carnforth,CNF,54.129688,-2.771244
Carnoustie,CAN,56.500618,-2.7066
Carntyne,CAY,55.854412,-4.17898
Carpenders Park,CPK,51.627885,-0.385578
Carrbridge,CAG,57.279873,-3.829541
Carshalton,CSH,51.367859,-0.16693
Carshalton Beeches,CSB,51.357117,-0.17023
Carstairs,CRS,55.69075,-3.668696
Cartsdyke,CDY,55.942261,-4.731633
Castle Bar Park,CBP,51.522865,-0.331575
Castle Cary,CLC,51.099583,-2.522683
Castleford,CFD,53.724171,-1.355852
Castleton,CAS,53.591804,-2.178125
Castleton Moor,CSM,54.467297,-0.947707
Caterham,CAT,51.282803,-0.078539
Catford Bridge,CFB,51.444725,-0.027142
Catford,CTF,51.444706,-0.025701
Cathays,CYS,51.488678,-3.178149
Cathcart,CCT,55.817879,-4.261552
Cattal,CTL,53.997515,-1.319808
Causeland,CAU,50.405525,-4.466937
Cefn-Y-Bedd,CYB,53.098511,-3.031972
Chadwell Heath,CTH,51.567905,0.128263
Chafford Hundred,CFH,51.502792,0.290938
Chalfont & Latimer,CFO,51.66835,-0.560646
Chalkwell,CHW,51.53883,0.6706
Chandlers Ford,CFR,50.983,-1.3845
Chapel-En-Le-Frith,CEF,53.312405,-1.918915
Chapeltown,CLN,53.464046,-1.466743
Chapleton,CPN,51.01577,-4.024398
Chappel & Wakes Colne,CWC,51.925312,0.758944
Charing,CHG,51.208649,0.790337
Charing Cross (Glasgow),CHC,55.865345,-4.270689
Charlbury,CBY,51.872929,-1.490133
Charlton,CTN,51.486904,0.030852
Chartham,CRT,51.256958,1.018303
Chassen Road,CSR,53.44605,-2.368171
Chatelherault,CTE,55.76521,-4.00466
Chatham,CTM,51.381161,0.520559
Chathill,CHT,55.536404,-1.706846
Cheadle Hulme,CHU,53.375956,-2.188125
Cheam,CHE,51.35601,-0.2148
Cheddington,CED,51.857908,-0.662168
Chelford,CEL,53.270744,-2.280375
Chelmsford,CHM,51.736595,0.469316
Chelsfield,CLD,51.35603,0.108373
Cheltenham Spa,CNM,51.896465,-2.100245
Chepstow,CPW,51.640137,-2.67193
Cherry Tree,CYT,53.732868,-2.518401
Chertsey,CHY,51.387108,-0.509667
Cheshunt,CHN,51.702747,-0.023171
Chessington North,CSN,51.364483,-0.300661
Chessington South,CSS,51.356491,-0.308144
Chester,CTR,53.196815,-2.880152
Chester Road,CRD,52.535575,-1.832582
Chesterfield,CHD,53.238209,-1.42011
Chester-Le-Street,CLS,54.854885,-1.577847
Chestfield & Swalecliffe,CSW,51.360004,1.068182
Chetnole,CNO,50.866428,-2.574072
Chichester,CCH,50.831821,-0.783032
Chilham,CIL,51.244549,0.975937
Chilworth,CHL,51.21553,-0.523795
Chingford,CHI,51.63385,0.009955
Chinley,CLY,53.340275,-1.9444
Chippenham,CPM,51.462162,-2.115123
Chipstead,CHP,51.309444,-0.169259
Chirk,CRK,52.932793,-3.066708
Chislehurst,CIT,51.405506,0.057437
Chiswick,CHK,51.4809,-0.267538
Cholsey,CHO,51.570135,-1.157942
Chorley,CRL,53.652428,-2.626693
Chorleywood,CLW,51.654188,-0.51846
Christchurch,CHR,50.738148,-1.784566
Christs Hospital,CHH,51.050629,-0.363538
Church & Oswaldtwistle,CTW,53.750431,-2.391216
Church Fenton,CHF,53.827671,-1.226652
Church Stretton,CTT,52.536606,-2.803485
Cilmeri,CIM,52.150936,-3.45719
City Thameslink,CTK,51.514336,-0.103412
Clacton-On-Sea,CLT,51.793953,1.154134
Clandon,CLA,51.263832,-0.503622
Clapham (North Yorkshire),CPY,54.105392,-2.409858
Clapham High Street,CLP,51.46534,-0.1328
Clapham Junction,CLJ,51.464134,-0.170281
Clapton,CPT,51.56213,-0.056685
Clarbeston Road,CLR,51.852207,-4.88221
Clarkston,CKS,55.789753,-4.275865
Claverdon,CLV,52.276424,-1.696566
Claygate,CLG,51.360664,-0.348207
Cleethorpes,CLE,53.56316,-0.029584
Cleland,CEA,55.804073,-3.909695
Clifton,CLI,53.522503,-2.314811
Clifton Down,CFN,51.46423,-2.611761
Clitheroe,CLH,53.87345,-2.394365
Clock House,CLK,51.408096,-0.041668
Clunderwen,CUW,51.8405,-4.731915
Clydebank,CYK,55.900562,-4.403927
Coatbridge Central,CBC,55.863213,-4.032443
Coatbridge Sunnyside,CBS,55.866886,-4.027847
Coatdyke,COA,55.864567,-4.005343
Cobham & Stoke Dabernon,CSD,51.318077,-0.389917
Codsall,CSL,52.627262,-2.200891
Cogan,CGN,51.445396,-3.189974
Colchester,COL,51.900478,0.894085
Colchester Town,CET,51.886505,0.904055
Coleshill Parkway,CEH,52.5164,-1.7081
Collingham,CLM,53.144047,-0.748588
Collington,CLL,50.839272,0.457142
Colne,CNE,53.85478,-2.181087
Colwall,CWL,52.080284,-2.357489
Colwyn Bay,CWB,53.296349,-3.725462
Combe,CME,51.832277,-1.392817
Commondale,COM,54.481018,-0.97514
Congleton,CNG,53.157637,-2.192754
Conisbrough,CNS,53.48885,-1.234333
Connel Ferry,CON,56.451981,-5.384973
Conon Bridge,CBD,57.5617,-4.4404
Cononley,CEY,53.917351,-2.010631
Conway Park,CNP,53.386219,-3.026886
Conwy,CNW,53.280093,-3.83046
Cooden Beach,COB,50.83271,0.426969
Cookham,COO,51.556873,-0.721948
Cooksbridge,CBR,50.903938,-0.010272
Coombe,COE,50.44479,-4.481655
Copplestone,COP,50.814228,-3.751624
Corbridge,CRB,54.966152,-2.017141
Corby,COR,52.489196,-0.687944
Corfe Castle,CFC,50.6383,-2.0551
Corkerhill,CKH,55.836494,-4.323322
Corkickle,CKL,54.541657,-3.582155
Corpach,CPA,56.842724,-5.121662
Corrour,CRR,56.760181,-4.690966
Coryton,COY,51.520512,-3.230858
Coseley,CSY,52.545738,-2.086051
Cosford,COS,52.645031,-2.301479
Cosham,CSA,50.841644,-1.068259
Cottingham,CGM,53.781826,-0.406402
Cottingley,COT,53.767437,-1.588832
Coulsdon South,CDS,51.315231,-0.13746
Coulsdon Town,CDN,51.32243,-0.13429
Coventry,COV,52.400787,-1.513466
Coventry Arena,CAA,52.447032,-1.494559
Cowden,CWN,51.155441,0.110653
Cowdenbeath,COW,56.111679,-3.344314
Cradley Heath,CRA,52.469177,-2.08976
Craigendoran,CGD,55.99485,-4.711291
Cramlington,CRM,55.088604,-1.598887
Cranbrook (Devon),CBK,50.7501,-3.4206
Craven Arms,CRV,52.441975,-2.837077
Crawley,CRW,51.111874,-0.187083
Crayford,CRY,51.448273,0.178826
Crediton,CDI,50.783375,-3.646912
Cressing,CES,51.852028,0.580186
Cressington,CSG,53.3588,-2.91172
Creswell,CWD,53.264008,-1.215865
Crewe,CRE,53.089607,-2.432987
Crewkerne,CKN,50.873337,-2.778815
Crews Hill,CWH,51.684334,-0.106441
Crianlarich,CNR,56.389652,-4.617778
Criccieth,CCC,52.918312,-4.236972
Cricklewood,CRI,51.559227,-0.214071
Croftfoot,CFF,55.818455,-4.229643
Crofton Park,CFT,51.454777,-0.03678
Cromer,CMR,52.930595,1.292778
Cromford,CMF,53.112915,-1.548788
Crookston,CKT,55.84388,-4.36049
Cross Gates,CRG,53.804638,-1.451798
Crossflatts,CFL,53.858829,-1.844886
Crosshill,COI,55.833225,-4.257648
Crosskeys,CKY,51.621,-3.1261
Crossmyloof,CMY,55.833626,-4.284813
Croston,CSO,53.66756,-2.777717
Crouch Hill,CRH,51.571205,-0.116907
Crowborough,COH,51.046085,0.188422
Crowhurst,CWU,50.888702,0.500984
Crowle,CWE,53.589725,-0.817042
Crowthorne,CRN,51.366356,-0.819194
Croy,CRO,55.955734,-4.035697
Crystal Palace,CYP,51.417603,-0.072899
Cuddington,CUD,53.23991,-2.599329
Cuffley,CUF,51.708675,-0.109761
Culham,CUM,51.653773,-1.236445
Culrain,CUA,57.919842,-4.405676
Cumbernauld,CUB,55.941326,-3.982089
Cupar,CUP,56.317043,-3.008772
Curriehill,CUH,55.901703,-3.317849
Custom House,CUS,51.509639,0.025894
Cuxton,CUX,51.374298,0.462693
Cwmbach,CMH,51.701885,-3.413774
Cwmbran,CWM,51.656544,-3.016233
Cynghordy,CYN,52.051689,-3.747095
Dagenham Dock,DDK,51.526237,0.14505
Dagenham East L.T.,ZDE,51.532065,0.146965
Daisy Hill,DSY,53.539389,-2.516212
Dalgety Bay,DAG,56.044178,-3.354809
Dalmally,DAL,56.400272,-4.9832
Dalmarnock,DAK,55.839371,-4.21647
Dalmeny,DAM,55.986362,-3.381645
Dalmuir,DMR,55.911793,-4.427038
Dalreoch,DLR,55.947365,-4.578226
Dalry,DLY,55.705395,-4.711899
Dalston (Cumbria),DLS,54.846203,-2.988866
Dalston Junction,DLJ,51.546139,-0.07544
Dalston Kingsland,DLK,51.548035,-0.074594
Dalton,DLT,54.15424,-3.179031
Dalwhinnie,DLW,56.934334,-4.246498
Danby,DNY,54.466068,-0.910704
Danescourt,DCT,51.505199,-3.23332
Danzey,DZY,52.324329,-1.819493
Darlington,DAR,54.520462,-1.54732
Darnall,DAN,53.381084,-1.410661
Darsham,DSM,52.272812,1.522343
Dartford,DFD,51.447548,0.217643
Darton,DRT,53.58836,-1.531646
Darwen,DWN,53.69804,-2.464958
Datchet,DAT,51.483303,-0.579978
Davenport,DVN,53.390719,-2.153234
Dawlish,DWL,50.580692,-3.464583
Dawlish Warren,DWW,50.599311,-3.443903
Deal,DEA,51.223129,1.398559
Dean,DEN,51.042629,-1.634802
Deansgate,DGT,53.473961,-2.250061
Deganwy,DGY,53.294739,-3.833424
Deighton,DHN,53.669018,-1.751739
Delamere,DLM,53.228767,-2.666577
Denby Dale,DBD,53.572628,-1.663215
Denham,DNM,51.578495,-0.497633
Denham Golf Club,DGC,51.580544,-0.517774
Denmark Hill,DMK,51.468243,-0.089475
Dent,DNT,54.282597,-2.363987
Denton,DTN,53.457087,-2.131648
Deptford,DEP,51.478897,-0.02711
Derby,DBY,52.916381,-1.462555
Derby Road,DBR,52.04953,1.182332
Dereham Market Place,DEB,52.684896,0.945983
Devonport,DPT,50.378132,-4.171534
Dewsbury,DEW,53.692089,-1.633487
Didcot Parkway,DID,51.611275,-1.242614
Digby & Sowton,DIG,50.716434,-3.474574
Dilton Marsh,DMH,51.248928,-2.207723
Dinas Powys,DNS,51.431614,-3.21839
Dinas Rhondda,DMG,51.617073,-3.437123
Dingle Road,DGL,51.440109,-3.179776
Dingwall,DIN,57.594238,-4.422611
Dinsdale,DND,54.51474,-1.467051
Dinting,DTG,53.449382,-1.970276
Disley,DSL,53.358146,-2.042465
Diss,DIS,52.373096,1.123274
Dockyard,DOC,50.382553,-4.175957
Dodworth,DOD,53.545216,-1.530617
Dolau,DOL,52.295223,-3.263955
Doleham,DLH,50.918686,0.610732
Dolgarrog,DLG,53.186123,-3.822808
Dolwyddelan,DWD,53.052105,-3.884288
Doncaster,DON,53.521469,-1.140225
Dorchester South,DCH,50.708752,-2.437593
Dorchester West,DCW,50.710526,-2.443274
Dore & Totley,DOR,53.327625,-1.514997
Dorking Deepdene,DPD,51.238918,-0.323921
Dorking,DKG,51.241615,-0.323822
Dorking West,DKT,51.236443,-0.339762
Dormans,DMS,51.15567,-0.005183
Dorridge,DDG,52.371861,-1.753209
Dove Holes,DVH,53.300005,-1.890678
Dover Priory,DVP,51.125988,1.304227
Dovercourt,DVC,51.938892,1.280724
Dovey Junction,DVY,52.564133,-3.925273
Downham Market,DOW,52.60471,0.365751
Drayton Green,DRG,51.516326,-0.330089
Drayton Manor,DRY,52.61095,-1.71345
Drayton Park,DYP,51.552124,-0.104723
Drem,DRM,56.005981,-2.785752
Driffield,DRF,54.001526,-0.434627
Drigg,DRI,54.376968,-3.444066
Droitwich Spa,DTW,52.26862,-2.158239
Dronfield,DRO,53.301357,-1.468768
Drumchapel,DMC,55.904926,-4.364204
Drumfrochar,DFR,55.941292,-4.774822
Drumgelloch,DRU,55.867233,-3.95114
Drumry,DMY,55.904495,-4.386583
Duddeston,DUD,52.488018,-1.871842
Dudley Port,DDP,52.524517,-2.049401
Duffield,DFI,52.987713,-1.486035
Duirinish,DRN,57.319847,-5.692103
Duke Street,DST,55.859207,-4.212814
Dullingham,DUL,52.200943,0.366197
Dumbarton Central,DBC,55.946705,-4.56697
Dumbarton East,DBE,55.942478,-4.55387
Dumbreck,DUM,55.841255,-4.309216
Dumfries,DMF,55.072395,-3.605261
Dumpton Park,DMP,51.345566,1.426291
Dunbar,DUN,55.998428,-2.514625
Dunblane,DBL,56.186001,-3.967296
Duncraig,DCG,57.336727,-5.637282
Dundee,DEE,56.456669,-2.970576
Dunfermline Queen Margaret,DFL,56.080706,-3.42164
Dunfermline City,DFE,56.068233,-3.452033
Dunkeld & Birnam,DKD,56.557301,-3.578097
Dunlop,DNL,55.711926,-4.532435
Dunoon,DUO,55.94681,-4.92252
Dunrobin Castle,DNO,57.986111,-3.946595
Duns,DUU,55.778865,-2.342808
Dunston,DOT,54.952164,-1.648648
Dunton Green,DNG,51.296425,0.171616
Durham,DHM,54.779408,-1.581746
Durrington-On-Sea,DUR,50.817463,-0.411463
Dyce,DYC,57.205002,-2.191978
Dyffryn Ardudwy,DYF,52.78857,-4.104242
Eaglescliffe,EAG,54.529449,-1.349426
Ealing Broadway,EAL,51.51466,-0.300843
Ealing Common,ZEC,51.51,-0.28805
Earlestown,ERL,53.451139,-2.637674
Earley,EAR,51.441051,-0.917989
Earl's Court L.T.,ZET,51.49138,-0.1936
Earlsfield,EAD,51.441929,-0.188423
Earlston,EAS,55.639072,-2.68
Earlswood (Surrey),ELD,51.227631,-0.171078
Earlswood (West Midlands),EWD,52.366638,-1.861907
East Boldon,EBL,54.9468,-1.420767
East Cowes,ECW,50.75873,-1.29107
East Croydon,ECR,51.375679,-0.093335
East Didsbury,EDY,53.410206,-2.22111
East Dulwich,EDW,51.460911,-0.081151
East Farleigh,EFL,51.255112,0.48498
East Garforth,EGF,53.791622,-1.363933
East Grinstead,EGR,51.126213,-0.017887
East Kilbride,EKL,55.765388,-4.18199
East Linton,ELT,55.9856,-2.6579
East Malling,EML,51.285748,0.439308
East Midlands Parkway,EMD,52.862,-1.263
East Tilbury,ETL,51.485065,0.412479
East Worthing,EWR,50.822071,-0.354517
Eastbourne,EBN,50.769085,0.281847
Eastbrook,EBK,51.437126,-3.207031
Easterhouse,EST,55.860157,-4.107389
Eastham Rake,ERA,53.307532,-2.9812
Eastleigh,ESL,50.968559,-1.350563
Eastrington,EGN,53.75481,-0.786612
Ebbsfleet International,EBD,51.443009,0.320887
Ebbw Vale Parkway,EBV,51.7573,-3.1965
Ebbw Vale Town,EBB,51.782007,-3.205996
Eccles,ECC,53.485443,-2.333014
Eccles Road,ECS,52.470585,0.969656
Eccleston Park,ECL,53.430665,-2.780555
Edale,EDL,53.36477,-1.817395
Eden Park,EDN,51.390762,-0.026587
Edenbridge,EBR,51.208508,0.060099
Edenbridge Town,EBT,51.200287,0.06689
Edge Hill,EDG,53.402663,-2.946986
Edinburgh Gateway,EGY,55.941,-3.32
Edinburgh Park,EDP,55.927615,-3.307829
Edinburgh Waverley,EDB,55.952442,-3.188236
Edmonton Green,EDR,51.623802,-0.059665
Effingham Junction,EFF,51.291504,-0.419536
Eggesford,EGG,50.887848,-3.875235
Egham,EGH,51.428925,-0.545701
Egton,EGT,54.437679,-0.761896
Elephant & Castle,EPH,51.494469,-0.098462
Elgin,ELG,57.64299,-3.31163
Ellesmere Port,ELP,53.282097,-2.895403
Elmers End,ELE,51.398335,-0.049263
Elmstead Woods,ESD,51.417435,0.043594
Elmswell,ESW,52.238201,0.911625
Elsecar,ELR,53.498924,-1.428617
Elsenham,ESM,51.92038,0.22779
Elstree & Borehamwood,ELS,51.652836,-0.279779
Eltham,ELW,51.455101,0.0496
Elton & Orston,ELO,52.951843,-0.855362
Ely,ELY,52.390846,0.266105
Emerson Park,EMP,51.56889,0.220658
Emsworth,EMS,50.851326,-0.938784
Energlyn & Churchill Park,ECP,51.5838,-3.2287
Enfield Chase,ENC,51.652607,-0.090404
Enfield Lock,ENL,51.671379,-0.028875
Enfield Town,ENF,51.651524,-0.078891
Entwistle,ENT,53.655591,-2.413983
Epsom Downs,EPD,51.321365,-0.243411
Epsom,EPS,51.334339,-0.268756
Erdington,ERD,52.528435,-1.839297
Eridge,ERI,51.089024,0.200452
Erith,ERH,51.481621,0.174651
Esher,ESH,51.379642,-0.354714
Eskbank,EKB,55.88956,-3.07845
Essex Road,EXR,51.540302,-0.096552
Etchingham,ETC,51.010479,0.441935
Euxton Balshaw Lane,EBA,53.670071,-2.675045
Evesham,EVE,52.098793,-1.947413
Ewell East,EWE,51.345612,-0.24106
Ewell West,EWW,51.349445,-0.256711
Exeter Central,EXC,50.726471,-3.532973
Exeter St Davids,EXD,50.729019,-3.544387
Exeter St Thomas,EXT,50.716529,-3.538759
Exhibition Centre,EXG,55.860619,-4.283207
Exmouth,EXM,50.620937,-3.415035
Exton,EXN,50.668255,-3.443337
Eynsford,EYN,51.362377,0.203465
Fairbourne,FRB,52.696018,-4.049464
Fairfield,FRF,53.471215,-2.14581
Fairlie,FRL,55.752514,-4.853834
Fairwater,FRW,51.491714,-3.232963
Falconwood,FCN,51.459087,0.078571
Falkirk Grahamston,FKG,56.002735,-3.786359
Falkirk High,FKK,55.991863,-3.792276
Falls of Cruachan,FOC,56.386242,-5.114992
Falmer,FMR,50.862064,-0.087364
Falmouth Docks,FAL,50.15075,-5.0559
Falmouth Town,FMT,50.148392,-5.065443
Fareham,FRM,50.853352,-1.19162
Farnborough Main,FNB,51.296471,-0.756436
Farnborough North,FNN,51.301723,-0.743385
Farncombe,FNC,51.197639,-0.604522
Farnham,FNH,51.211422,-0.793093
Farningham Road,FNR,51.401337,0.235533
Farnworth,FNW,53.549999,-2.387857
Farringdon,ZFD,51.520071,-0.104665
Fauldhouse,FLD,55.822163,-3.719006
Faversham,FAV,51.311436,0.891278
Faygate,FGT,51.095943,-0.263403
Fazakerley,FAZ,53.469063,-2.936729
Fearn,FRN,57.777828,-3.994245
Featherstone,FEA,53.679253,-1.359562
Felixstowe,FLX,51.967449,1.352707
Fellgate,FEG,54.957,-1.4878
Feltham,FEL,51.447845,-0.40983
Feniton,FNT,50.787022,-3.285259
Fenny Stratford,FEN,52.000103,-0.716636
Fernhill,FER,51.685932,-3.394469
Ferriby,FRY,53.716625,-0.508878
Ferryside,FYS,51.76833,-4.36952
Ffairfach,FFA,51.87244,-3.992916
Filey,FIL,54.209946,-0.293351
Filton Abbey Wood,FIT,51.509438,-2.561933
Finchley Road & Frognal,FNY,51.550198,-0.183324
Finsbury Park,FPK,51.564724,-0.105642
Finstock,FIN,51.85305,-1.47003
Fishbourne,FSB,50.839352,-0.815495
Fishersgate,FSG,50.834469,-0.219161
Fishguard & Goodwick,FGW,52.0035,-4.9948
Fishguard Harbour,FGH,52.011505,-4.985713
Fiskerton,FSK,53.060253,-0.912181
Fitzwilliam,FZW,53.632587,-1.375391
Five Ways,FWY,52.470078,-1.913116
Fleet,FLE,51.290947,-0.831169
Flimby,FLM,54.689815,-3.520544
Flint,FLN,53.249516,-3.13302
Flitwick,FLT,52.003457,-0.4952
Flixton,FLI,53.443746,-2.383878
Flowery Field,FLF,53.461737,-2.080965
Folkestone Central,FKC,51.082985,1.168331
Folkestone West,FKW,51.085163,1.154209
Ford,FOD,50.829506,-0.578611
Forest Gate,FOG,51.549976,0.023568
Forest Hill,FOH,51.438869,-0.053297
Formby,FBY,53.553796,-3.070706
Forres,FOR,57.609661,-3.62847
Forsinard,FRS,58.356998,-3.896903
Fort Matilda,FTM,55.958809,-4.7953
Fort William,FTW,56.820625,-5.106721
Four Oaks,FOK,52.579662,-1.8273
Foxfield,FOX,54.259041,-3.215796
Foxton,FXN,52.119526,0.056572
Frant,FRT,51.104321,0.294034
Fratton,FTN,50.795818,-1.073422
Freshfield,FRE,53.566494,-3.072014
Freshford,FFD,51.342251,-2.30146
Frimley,FML,51.311653,-0.747426
Frinton-On-Sea,FRI,51.838314,1.242907
Frizinghall,FZH,53.820957,-1.769072
Frodsham,FRD,53.295853,-2.723145
Frome,FRO,51.227131,-2.309302
Fulwell,FLW,51.433525,-0.349893
Furness Vale,FNV,53.348385,-1.989445
Furze Platt,FZP,51.533082,-0.728467
Gainsborough Central,GNB,53.399574,-0.769674
Gainsborough Lea Road,GBL,53.386078,-0.768558
Galashiels,GAL,55.610426,-2.809693
Garelochhead,GCH,56.079449,-4.826544
Garforth,GRF,53.796211,-1.382083
Gargrave,GGV,53.97842,-2.105171
Garrowhill,GAR,55.855286,-4.129497
Garscadden,GRS,55.88784,-4.364757
Garsdale,GSD,54.32135,-2.325891
Garston,GSN,51.686685,-0.381689
Garswood,GSW,53.488518,-2.672149
Gartcosh,GRH,55.885,-4.078
Garth (Powys),GTH,52.133816,-3.531142
Garth (Mid Glamorgan),GMG,51.596413,-3.641504
Garve,GVE,57.613129,-4.688429
Gathurst,GST,53.559399,-2.694418
Gatley,GTY,53.394001,-2.230052
Gatwick Airport,GTW,51.156425,-0.161022
Georgemas Junction,GGJ,58.513721,-3.45212
Gerrards Cross,GER,51.588883,-0.555367
Gidea Park,GDP,51.581772,0.205411
Giffnock,GFN,55.804688,-4.294289
Giggleswick,GIG,54.061775,-2.302644
Gilberdyke,GBD,53.747955,-0.732223
Gilfach Fargoed,GFF,51.684208,-3.226604
Gillingham (Dorset),GIL,51.033886,-2.272361
Gillingham (Kent),GLM,51.386829,0.549618
Gilshochill,GSC,55.897295,-4.28201
Gipsy Hill,GIP,51.424984,-0.084096
Girvan,GIR,55.246517,-4.848927
Glaisdale,GLS,54.439796,-0.794221
Glan Conwy,GCW,53.266644,-3.796892
Glasgow Central,GLC,55.860157,-4.259208
Glasgow Queen Street,GLQ,55.863003,-4.251385
Glasshoughton,GLH,53.70884,-1.34247
Glazebrook,GLZ,53.428076,-2.461152
Gleneagles,GLE,56.274902,-3.7312
Glenfinnan,GLF,56.872753,-5.449219
Glengarnock,GLG,55.738579,-4.674364
Glenrothes with Thornton,GLT,56.162224,-3.143189
Glossop,GLO,53.444503,-1.949403
Gloucester,GCR,51.864799,-2.238141
Glynde,GLY,50.859398,0.06883
Gobowen,GOB,52.893501,-3.036019
Godalming,GOD,51.186115,-0.619175
Godley,GDL,53.448151,-2.049649
Godstone,GDN,51.217606,-0.051188
Goldthorpe,GOE,53.533379,-1.313488
Golf Street,GOF,56.497852,-2.719541
Golspie,GOL,57.971092,-3.98806
Gomshall,GOM,51.218964,-0.442065
Goodmayes,GMY,51.565502,0.112277
Goole,GOO,53.704426,-0.872907
Goostrey,GTR,53.222634,-2.32628
Gordon Hill,GDH,51.66346,-0.094289
Gorebridge,GBG,55.836732,-3.046099
Goring & Streatley,GOR,51.521428,-1.133051
Goring-By-Sea,GBS,50.817753,-0.432751
Gorton,GTO,53.468712,-2.167182
Gospel Oak,GPO,51.555546,-0.150737
Gourock,GRK,55.962788,-4.818021
Gourock Pier,GXX,55.9628,-4.81475
Gowerton,GWN,51.648701,-4.035124
Goxhill,GOX,53.676613,-0.337699
Grange Park,GPK,51.642811,-0.096599
Grange-Over-Sands,GOS,54.195282,-2.902752
Grangetown,GTN,51.466984,-3.189097
Grantham,GRA,52.906448,-0.642438
Grateley,GRT,51.170269,-1.619497
Gravelly Hill,GVH,52.514969,-1.852612
Gravesend,GRV,51.441029,0.36699
Grays,GRY,51.476089,0.322719
Great Ayton,GTA,54.4902,-1.113845
Great Bentley,GRB,51.85207,1.065258
Great Chesterford,GRC,52.060402,0.1939
Great Coates,GCT,53.575542,-0.128701
Great Malvern,GMV,52.109165,-2.318289
Great Missenden,GMN,51.703304,-0.709132
Great Yarmouth,GYM,52.612122,1.720949
Green Lane,GNL,53.38271,-3.016281
Green Road,GNR,54.244748,-3.245602
Greenbank,GBK,53.251664,-2.533185
Greenfaulds,GRL,55.932064,-3.999232
Greenfield,GNF,53.538835,-2.014189
Greenford,GFD,51.54235,-0.3463
Greenhithe for Bluewater,GNH,51.450855,0.279694
Greenock Central,GKC,55.945385,-4.752692
Greenock West,GKW,55.94772,-4.768866
Greenwich,GNW,51.477779,-0.014198
Gretna Green,GEA,55.001934,-3.064608
Grimsby Docks,GMD,53.574699,-0.075873
Grimsby Town,GMB,53.564091,-0.086922
Grindleford,GRN,53.30555,-1.62629
Grosmont,GMT,54.436394,-0.724937
Grove Park,GRP,51.430389,0.022597
Guide Bridge,GUI,53.474171,-2.112961
Guildford,GLD,51.236912,-0.580409
Guiseley,GSY,53.875668,-1.715537
Gunnersbury,GUN,51.491814,-0.275766
Gunnislake,GSL,50.515992,-4.219437
Gunton,GNT,52.866077,1.348821
Gwersyllt,GWE,53.072559,-3.017913
Gypsy Lane,GYP,54.532902,-1.179375
Habrough,HAB,53.605507,-0.267936
Hackbridge,HCB,51.378437,-0.15358
Hackney Central,HKC,51.546825,-0.055896
Hackney Downs,HAC,51.548695,-0.060144
Hackney Wick,HKW,51.543625,-0.025759
Haddenham & Thame Parkway,HDM,51.770788,-0.942121
Haddiscoe,HAD,52.528835,1.622451
Hadfield,HDF,53.460873,-1.965429
Hadley Wood,HDW,51.668365,-0.176519
Hag Fold,HGF,53.533442,-2.493744
Haggerston,HGG,51.53912,-0.07642
Hagley,HAG,52.422375,-2.147018
Hairmyres,HMY,55.762012,-4.220047
Hale,HAL,53.378669,-2.347383
Halesworth,HAS,52.346157,1.506141
Halewood,HED,53.364466,-2.830149
Halifax,HFX,53.720417,-1.854486
Hall Green,HLG,52.436745,-1.845513
Hall i' th' Wood,HID,53.597546,-2.413986
Hall Road,HLR,53.497442,-3.049607
Halling,HAI,51.352169,0.445711
Haltwhistle,HWH,54.967972,-2.462321
Ham Street,HMT,51.067684,0.854653
Hamble,HME,50.871311,-1.329173
Hamilton Central,HNC,55.773239,-4.038928
Hamilton West,HNW,55.779232,-4.056781
Hammerton,HMM,53.996105,-1.283026
Hampden Park,HMD,50.796124,0.278906
Hampstead Heath,HDH,51.555779,-0.165159
Hampton,HMP,51.41607,-0.37199
Hampton Court,HMC,51.401947,-0.342412
Hampton Wick,HMW,51.41412,-0.313201
Hampton-In-Arden,HIA,52.428375,-1.699934
Hamstead,HSD,52.530718,-1.92838
Hamworthy,HAM,50.725754,-2.018381
Hanborough,HND,51.825172,-1.373471
Handforth,HTH,53.34639,-2.213263
Hanwell,HAN,51.511604,-0.338432
Hapton,HPN,53.781393,-2.318115
Harlech,HRL,52.861309,-4.109248
Harlesden,HDN,51.536518,-0.258214
Harling Road,HRD,52.454128,0.908188
Harlington,HLN,51.962012,-0.495715
Harlow Mill,HWM,51.790878,0.131497
Harlow Town,HWN,51.781639,0.094804
Harold Wood,HRO,51.592907,0.234819
Harpenden,HPD,51.814831,-0.351961
Harrietsham,HRM,51.244652,0.673574
Harringay Green Lanes,HRY,51.577336,-0.098104
Harringay,HGY,51.577305,-0.105115
Harrington,HRR,54.613551,-3.565573
Harrogate,HGT,53.991959,-1.537814
Harrow & Wealdstone,HRW,51.591576,-0.334067
Harrow-on-the-Hill,HOH,51.57931,-0.336628
Hartford,HTF,53.241721,-2.553978
Hartlebury,HBY,52.335049,-2.22158
Hartlepool,HPL,54.686771,-1.2073
Hartwood,HTW,55.810532,-3.839792
Harwich International,HPQ,51.947701,1.255167
Harwich Town,HWC,51.944157,1.285469
Haslemere,HSL,51.089237,-0.719162
Hassocks,HSK,50.923264,-0.146043
Hastings,HGS,50.858288,0.57608
Hatch End,HTE,51.610054,-0.369499
Hatfield,HAT,51.763397,-0.216162
Hatfield & Stainforth,HFS,53.589532,-1.020931
Hatfield Peverel,HAP,51.779785,0.593463
Hathersage,HSG,53.325405,-1.651641
Hattersley,HTY,53.445126,-2.040324
Hatton,HTN,52.295242,-1.672982
Havant,HAV,50.854416,-0.982763
Havenhouse,HVN,53.114548,0.272619
Haverfordwest,HVF,51.802601,-4.960279
Hawarden Bridge,HWB,53.218971,-3.031866
Hawarden,HWD,53.185703,-3.032561
Hawick,HWK,55.425478,-2.7822
Hawkhead,HKH,55.843136,-4.398792
Haydon Bridge,HDB,54.974888,-2.246809
Haydons Road,HYR,51.425755,-0.189073
Hayes & Harlington,HAY,51.502973,-0.420785
Hayes (Kent),HYS,51.375744,0.010123
Hayle,HYL,50.186176,-5.419558
Haymarket,HYM,55.945854,-3.218458
Haywards Heath,HHE,51.00536,-0.105717
Hazel Grove,HAZ,53.377415,-2.122121
Headbolt Lane,HBL,53.492835,-2.878862
Headcorn,HCN,51.165657,0.627507
Headingley,HDY,53.817787,-1.59289
Headstone Lane,HDL,51.60268,-0.356766
Heald Green,HDG,53.369248,-2.236533
Healing,HLI,53.581425,-0.160163
Heath High Level,HHL,51.516518,-3.181737
Heath Low Level,HLL,51.515606,-3.183163
Heathrow Terminal 4 Rail,HAF,51.458214,-0.445447
Heathrow Terminal 5 Rail,HWV,51.47,-0.48
Heathrow Terminals 1-2-3 Rail,HXX,51.471,-0.456
Heaton Chapel,HTC,53.425556,-2.179046
Hebden Bridge,HBD,53.737587,-2.009063
Heckington,HEC,52.977463,-0.29316
Hedge End,HDE,50.927773,-1.297056
Hednesford,HNF,52.709922,-2.00199
Heighington,HEI,54.596977,-1.582071
Helensburgh Central,HLC,56.004261,-4.732803
Helensburgh Upper,HLU,56.013268,-4.73184
Hellifield,HLD,54.010972,-2.227961
Helmsdale,HMS,58.117737,-3.660068
Helsby,HSB,53.275784,-2.770786
Hemel Hempstead,HML,51.742062,-0.490762
Hendon,HEN,51.580057,-0.238652
Hengoed,HNG,51.647362,-3.224162
Henley-In-Arden,HNL,52.291,-1.784444
Henley-On-Thames,HOT,51.534182,-0.900133
Hensall,HEL,53.698357,-1.113905
Hereford,HFD,52.060715,-2.708854
Herne Bay,HNB,51.364059,1.118742
Herne Hill,HNH,51.453148,-0.101624
Hersham,HER,51.377419,-0.389271
Hertford East,HFE,51.799793,-0.072591
Hertford North,HFN,51.798328,-0.092961
Hessle,HES,53.717567,-0.442169
Heswall,HSW,53.32917,-3.073568
Hever,HEV,51.180912,0.094648
Heworth,HEW,54.951862,-1.554976
Hexham,HEX,54.974201,-2.095266
Heyford,HYD,51.91902,-1.299262
Heysham Port,HHB,54.033284,-2.913179
High Brooms,HIB,51.149609,0.277686
High Street,HST,55.858719,-4.239953
High Wycombe,HWY,51.629793,-0.745139
Higham,HGM,51.426376,0.466931
Highams Park,HIP,51.608837,0.000183
Highbridge & Burnham,HIG,51.218098,-2.972192
Highbury & Islington,HHY,51.54668,-0.10206
Hightown,HTO,53.525272,-3.057407
Hildenborough,HLB,51.214451,0.226465
Hillfoot,HLF,55.920143,-4.32032
Hillington East,HLE,55.854778,-4.354768
Hillington West,HLW,55.85537,-4.370778
Hillside,HIL,53.62217,-3.024673
Hilsea,HLS,50.828075,-1.058592
Hinchley Wood,HYW,51.374939,-0.340508
Hinckley,HNK,52.534969,-1.371916
Hindley,HIN,53.542053,-2.574909
Hinton Admiral,HNA,50.752384,-1.713616
Hitchin,HIT,51.952915,-0.262498
Hither Green,HGR,51.452374,-0.000906
Hockley,HOC,51.603825,0.659971
Hollingbourne,HBN,51.265484,0.627465
Holmes Chapel,HCH,53.199131,-2.351063
Holmwood,HLM,51.180428,-0.321752
Holton Heath,HOL,50.711346,-2.077863
Holyhead,HHD,53.307674,-4.631062
Holytown,HLY,55.812943,-3.973967
Homerton,HMN,51.546535,-0.038601
Honeybourne,HYB,52.101383,-1.834989
Honiton,HON,50.797062,-3.186207
Honley,HOY,53.608849,-1.780814
Honor Oak Park,HPA,51.450428,-0.045607
Hook,HOK,51.279587,-0.961933
Hooton,HOO,53.296741,-2.976721
Hope (Flintshire),HPE,53.117344,-3.03691
Hope (Derbyshire),HOP,53.346283,-1.729587
Hopton Heath,HPT,52.391964,-2.912536
Horden,HRE,54.763879,-1.307347
Horley,HOR,51.168137,-0.161994
Hornbeam Park,HBP,53.980236,-1.527272
Hornsey,HRN,51.586414,-0.111961
Horsforth,HRS,53.847576,-1.630612
Horsham,HRH,51.066174,-0.318753
Horsley,HSY,51.279114,-0.434304
Horton in Ribblesdale,HIR,54.149379,-2.302054
Horwich Parkway,HWI,53.579948,-2.543712
Hoscar,HSC,53.597366,-2.803828
Hough Green,HGN,53.372378,-2.775056
Hounslow,HOU,51.462471,-0.361808
Hove,HOV,50.835514,-0.170824
Hoveton & Wroxham,HXM,52.715084,1.408312
How Wood,HWW,51.717697,-0.344594
Howden,HOW,53.764526,-0.86068
Howwood,HOZ,55.811,-4.56
Hoxton,HOX,51.53193,-0.07672
Hoylake,HYK,53.390202,-3.178861
Hubberts Bridge,HBB,52.975594,-0.110044
Hucknall,HKN,53.038265,-1.195793
Huddersfield,HUD,53.648407,-1.785142
Hull,HUL,53.744144,-0.345645
Humphrey Park,HUP,53.452321,-2.327363
Huncoat,HCT,53.772144,-2.345903
Hungerford,HGD,51.415344,-1.511056
Hunmanby,HUB,54.17429,-0.314737
Huntingdon,HUN,52.328613,-0.192047
Huntly,HNT,57.444401,-2.776354
Hunts Cross,HNX,53.360644,-2.855716
Hurst Green,HUR,51.244545,0.004397
Hutton Cranswick,HUT,53.955669,-0.43331
Huyton,HUY,53.409813,-2.842991
Hyde Central,HYC,53.451682,-2.085149
Hyde North,HYT,53.464306,-2.085829
Hykeham,HKM,53.194546,-0.600412
Hyndland,HYN,55.879803,-4.314715
Hythe,HYH,51.885281,0.926539
Ifield,IFI,51.115902,-0.215505
Ilford,IFD,51.559078,0.068699
Ilkeston,ILN,52.9794,-1.2949
Ilkley,ILK,53.925304,-1.821799
Imperial Wharf,IMW,51.475134,-0.183026
Ince,INC,53.538975,-2.611865
Ince & Elton,INE,53.276736,-2.816234
Ingatestone,INT,51.667301,0.384556
Insch,INS,57.33749,-2.616279
Invergordon,IGD,57.688587,-4.175563
Invergowrie,ING,56.456795,-3.057897
Inverkeithing,INK,56.034725,-3.39621
Inverkip,INP,55.905781,-4.873089
Inverness,INV,57.480194,-4.223199
Inverness Airport,IVA,57.5335,-4.0552
Invershin,INH,57.925362,-4.399288
Inverurie,INR,57.286343,-2.373224
Ipswich,IPS,52.050552,1.144481
Irlam,IRL,53.434172,-2.432989
Irvine,IRV,55.610916,-4.675196
Isleworth,ISL,51.474709,-0.33689
Islip,ISP,51.82571,-1.238185
Iver,IVR,51.508342,-0.506659
Ivybridge,IVY,50.393515,-3.904954
James Cook University Hospital,JCH,54.5515,-1.2076
James Street,LVJ,53.404748,-2.991993
Jewellery Quarter,JEQ,52.489514,-1.913522
Johnston,JOH,51.756714,-4.996407
Johnstone,JHN,55.834759,-4.50369
Jordanhill,JOR,55.882282,-4.326053
Kearsley,KSL,53.54419,-2.375032
Kearsney,KSN,51.149399,1.271566
Keighley,KEI,53.86787,-1.90112
Keith,KEH,57.550976,-2.954062
Kelvedon,KEL,51.841202,0.701529
Kelvindale,KVD,55.8933,-4.3106
Kemble,KEM,51.67622,-2.023115
Kempston Hardwick,KMH,52.092026,-0.505266
Kempton Park,KMP,51.421757,-0.40929
Kemsing,KMS,51.297684,0.247716
Kemsley,KML,51.361996,0.733559
Kendal,KEN,54.332108,-2.739667
Kenilworth,KNW,52.3429,-1.5726
Kenley,KLY,51.324547,-0.101199
Kennett,KNE,52.277523,0.490482
Kennishead,KNS,55.813099,-4.325119
Kensal Green,KNL,51.530602,-0.223847
Kensal Rise,KNR,51.534157,-0.220811
Kensington Olympia,KPA,51.497753,-0.210189
Kent House,KTH,51.412659,-0.045786
Kentish Town,KTN,51.550338,-0.140446
Kentish Town West,KTW,51.546501,-0.146778
Kenton,KNT,51.581436,-0.317123
Kents Bank,KBK,54.172967,-2.925351
Kettering,KET,52.393177,-0.731724
Kew Bridge,KWB,51.489311,-0.288827
Kew Gardens,KWG,51.477558,-0.284949
Keyham,KEY,50.389687,-4.179095
Keynsham,KYN,51.417122,-2.49465
Kidbrooke,KDB,51.462662,0.028331
Kidderminster,KID,52.384457,-2.239458
Kidsgrove,KDG,53.086555,-2.244828
Kidwelly,KWL,51.734299,-4.317046
Kilburn High Road,KBN,51.537312,-0.19186
Kildale,KLD,54.477268,-1.067829
Kildonan,KIL,58.171432,-3.869993
Kilgetty,KGT,51.732071,-4.715219
Kilmarnock,KMK,55.612835,-4.499048
Kilmaurs,KLM,55.636425,-4.532331
Kilpatrick,KPT,55.924755,-4.453454
Kilwinning,KWN,55.655994,-4.710071
Kinbrace,KBC,58.258408,-3.941063
Kingham,KGM,51.902222,-1.629331
Kinghorn,KGH,56.069389,-3.174161
Kings Langley,KGL,51.70631,-0.438411
Kings Lynn,KLN,52.754108,0.403475
Kings Norton,KNN,52.413456,-1.933801
Kings Nympton,KGN,50.935921,-3.905634
Kings Park,KGP,55.819935,-4.247294
Kings Sutton,KGS,52.020184,-1.280066
Kingsknowe,KGE,55.919323,-3.265634
Kingston,KNG,51.412155,-0.301768
Kingswood,KND,51.294807,-0.211439
Kingussie,KIN,57.07785,-4.052227
Kintbury,KIT,51.40247,-1.445059
Kintore,KTR,57.243611,-2.350278
Kirby Cross,KBX,51.840897,1.214045
Kirk Sandall,KKS,53.56347,-1.075006
Kirkby,KIR,53.486619,-2.902021
Kirkby in Ashfield,KKB,53.099758,-1.253278
Kirkby Stephen,KSW,54.455135,-2.368603
Kirkby-In-Furness,KBF,54.232426,-3.187398
Kirkcaldy,KDY,56.112579,-3.167445
Kirkconnel,KRK,55.38834,-3.998533
Kirkdale,KKD,53.440896,-2.981093
Kirkham & Wesham,KKM,53.787373,-2.881834
Kirkhill,KKH,55.814156,-4.168751
Kirknewton,KKN,55.888744,-3.432526
Kirkstall Forge,KLF,53.826,-1.62
Kirkwood,KWD,55.85577,-4.048037
Kirton Lindsey,KTL,53.484829,-0.593886
Kiveton Bridge,KIV,53.340729,-1.265524
Kiveton Park,KVP,53.336975,-1.240052
Knaresborough,KNA,54.008755,-1.470482
Knebworth,KBW,51.86636,-0.187406
Knighton,KNI,52.345043,-3.042232
Knockholt,KCK,51.34573,0.130865
Knottingley,KNO,53.706528,-1.259172
Knucklas,KNU,52.359833,-3.096907
Knutsford,KNF,53.301956,-2.372101
Kyle of Lochalsh,KYL,57.280567,-5.713067
Ladybank,LDY,56.273834,-3.122284
Ladywell,LAD,51.456291,-0.019445
Laindon,LAI,51.567566,0.424063
Lairg,LRG,58.001701,-4.401
Lake,LKE,50.64814,-1.16686
Lakenheath,LAK,52.447456,0.533911
Lamphey,LAM,51.667145,-4.873332
Lanark,LNK,55.673119,-3.772901
Lancaster,LAN,54.048553,-2.807934
Lancing,LAC,50.827015,-0.323103
Landywood,LAW,52.657101,-2.020659
Langbank,LGB,55.924725,-4.586326
Langho,LHO,53.804934,-2.447934
Langholm,LHL,55.006935,-2.99296
Langley,LNY,51.508011,-0.541747
Langley Green,LGG,52.494385,-2.005857
Langley Mill,LGM,53.018236,-1.330982
Langside,LGS,55.821175,-4.277696
Langwathby,LGW,54.694744,-2.662457
Langwith - Whaley Thorns,LAG,53.232885,-1.208882
Lapford,LAP,50.857384,-3.811489
Lapworth,LPW,52.341232,-1.72549
Larbert,LBT,56.022751,-3.830604
Largs,LAR,55.792637,-4.867942
Larkhall,LRH,55.739258,-3.974445
Laurencekirk,LAU,56.835945,-2.466345
Lawrence Hill,LWH,51.458168,-2.564183
Layton,LAY,53.835625,-3.030249
Lazonby & Kirkoswald,LZB,54.750233,-2.702207
Lea Bridge,LEB,51.5672,-0.00363
Lea Green,LEG,53.42709,-2.72386
Lea Hall,LEH,52.480709,-1.786457
Leagrave,LEA,51.905304,-0.459139
Lealholm,LHM,54.459885,-0.826027
Leamington Spa,LMS,52.284893,-1.536723
Leasowe,LSW,53.408035,-3.099624
Leatherhead,LHD,51.298397,-0.333225
Ledbury,LED,52.044991,-2.425728
Lee,LEE,51.449432,0.013364
Leeds,LDS,53.795158,-1.549089
Leicester,LEI,52.631397,-1.125274
Leigh (Kent),LIH,51.194057,0.211179
Leigh-on-Sea,LES,51.541309,0.640454
Leighton Buzzard,LBZ,51.916046,-0.676874
Lelant Saltings,LTS,50.17923,-5.441468
Lelant,LEL,50.183887,-5.436207
Lenham,LEN,51.233986,0.707337
Lenzie,LNZ,55.921364,-4.153932
Leominster,LEO,52.225109,-2.730506
Letchworth Garden City,LET,51.980305,-0.229403
Leuchars,LEU,56.375427,-2.893734
Leven,LEV,56.1923,-3.002
Levenshulme,LVM,53.444405,-2.192676
Lewes,LWS,50.870281,0.012455
Lewisham,LEW,51.466099,-0.014703
Leyland,LEY,53.69886,-2.687101
Leyton Midland Road,LEM,51.569393,-0.007313
Leytonstone High Road,LER,51.563725,0.008304
Lichfield City,LIC,52.680347,-1.825431
Lichfield Trent Valley,LTV,52.6869,-1.800014
Lidlington,LID,52.041385,-0.558972
Limehouse,LHS,51.51239,-0.040071
Lincoln Central,LCN,53.227089,-0.540922
Lingfield,LFD,51.176392,-0.007151
Lingwood,LGD,52.621872,1.489735
Linlithgow,LIN,55.975689,-3.596
Liphook,LIP,51.071213,-0.801027
Liskeard,LSK,50.446711,-4.46753
Liss,LIS,51.044254,-0.893023
Lisvane & Thornhill,LVT,51.544357,-3.185344
Little Kimble,LTK,51.752014,-0.809152
Little Sutton,LTT,53.285537,-2.943134
Littleborough,LTL,53.642988,-2.094698
Littlehampton,LIT,50.810226,-0.546547
Littlehaven,LVN,51.079514,-0.308276
Littleport,LTP,52.462696,0.316905
Liverpool Central,LVC,53.40525,-2.977841
Liverpool Lime Street,LIV,53.407299,-2.977746
Liverpool South Parkway,LPY,53.3577,-2.8897
Livingston North,LSN,55.901736,-3.543357
Livingston South,LVG,55.871712,-3.503823
Llanaber,LLA,52.741375,-4.078263
Llanbedr,LBR,52.820835,-4.110252
Llanbister Road,LLT,52.336231,-3.212283
Llanbradach,LNB,51.60321,-3.233085
Llandaf,LLN,51.507942,-3.229076
Llandanwg,LDN,52.835865,-4.124342
Llandecwyn,LLC,52.920666,-4.057092
Llandeilo,LLL,51.885117,-3.987662
Llandovery,LLV,51.99509,-3.803163
Llandrindod,LLO,52.242687,-3.37963
Llandudno,LLD,53.320911,-3.827043
Llandudno Junction,LLJ,53.283953,-3.809102
Llandybie,LLI,51.820099,-4.003658
Llanelli,LLE,51.673405,-4.162068
Llanfairfechan,LLF,53.257278,-3.983256
Llanfairpwll,LPG,53.22094,-4.209263
Llangadog,LLG,51.940639,-3.892638
Llangammarch,LLM,52.113724,-3.55528
Llangennech,LLH,51.691093,-4.078988
Llangynllo,LGO,52.350227,-3.161273
Llanharan,LLR,51.53759,-3.4408
Llanhilleth,LTH,51.700339,-3.137033
Llanishen,LLS,51.533592,-3.182181
Llanrwst,LWR,53.14401,-3.802844
Llansamlet,LAS,51.660973,-3.892526
Llantwit Major,LWM,51.40623,-3.47503
Llanwrda,LNR,51.962551,-3.871719
Llanwrtyd,LNW,52.104584,-3.632354
Llwyngwril,LLW,52.66658,-4.088024
Llwynypia,LLY,51.633957,-3.453557
Loch Awe,LHA,56.402481,-5.040117
Loch Eil Outward Bound,LHE,56.855343,-5.191638
Lochailort,LCL,56.881035,-5.663456
Locheilside,LCS,56.855473,-5.290086
Lochgelly,LCG,56.13538,-3.312958
Lochluichart,LCC,57.621277,-4.809628
Lochwinnoch,LHW,55.786549,-4.617038
Lockerbie,LOC,55.123085,-3.353242
Lockwood,LCK,53.635849,-1.800335
London Blackfriars,BFR,51.510735,-0.103554
London Bridge,LBG,51.505035,-0.085058
London Cannon Street,CST,51.510525,-0.090589
London Charing Cross,CHX,51.508362,-0.123835
London Euston,EUS,51.528313,-0.134545
London Fenchurch Street,FST,51.511234,-0.079039
London Fields,LOF,51.541454,-0.057574
London Kings Cross,KGX,51.530827,-0.122907
London Liverpool Street,LST,51.517551,-0.08021
London Marylebone,MYB,51.52248,-0.163605
London Paddington,PAD,51.516014,-0.176049
London Road (Brighton),LRB,50.836773,-0.136696
London Road (Guildford),LRD,51.24067,-0.56506
London St Pancras International,STP,51.531921,-0.126361
London Victoria,VIC,51.4966,-0.1448
London Waterloo,WAT,51.501865,-0.111126
London Waterloo East,WAE,51.504513,-0.10814
Long Buckby,LBK,52.293964,-1.086469
Long Eaton,LGE,52.885105,-1.288114
Long Preston,LPR,54.017115,-2.254533
Longbeck,LGK,54.592896,-1.028041
Longbridge,LOB,52.396385,-1.980861
Longcross,LNG,51.384556,-0.594536
Longfield,LGF,51.396496,0.299994
Longniddry,LND,55.976524,-2.889308
Longport,LPT,53.041656,-2.21623
Longton,LGN,52.990013,-2.137216
Looe,LOO,50.359234,-4.456029
Lostock,LOT,53.572969,-2.494276
Lostock Gralam,LTG,53.267677,-2.465197
Lostock Hall,LOH,53.724316,-2.687069
Lostwithiel,LOS,50.40744,-4.665497
Loughborough,LBO,52.779327,-1.194952
Loughborough Junction,LGJ,51.46666,-0.102499
Low Moor,LMR,53.74924,-1.750517
Lowdham,LOW,53.007072,-0.998465
Lower Sydenham,LSY,51.425056,-0.033746
Lowestoft,LWT,52.473618,1.749009
Ludlow,LUD,52.370853,-2.715275
Luton,LUT,51.882233,-0.414881
Luton Airport Parkway,LTN,51.871159,-0.393485
Luxulyan,LUX,50.390244,-4.747551
Lydney,LYD,51.714584,-2.531189
Lye,LYE,52.459267,-2.116233
Lymington Pier,LYP,50.758083,-1.529275
Lymington Town,LYT,50.760818,-1.537753
Lympstone Commando,LYC,50.661121,-3.438876
Lympstone Village,LYM,50.648621,-3.431419
Lytham,LTM,53.739101,-2.964206
Macclesfield,MAC,53.259331,-2.121397
Machynlleth,MCN,52.595844,-3.854311
Maesteg (Ewenny Road),MEW,51.605297,-3.649038
Maesteg,MST,51.610607,-3.655003
Maghull,MAG,53.506464,-2.930828
Maghull North,MNS,53.5167,-2.9213
Maiden Newton,MDN,50.780128,-2.568749
Maidenhead,MAI,51.518601,-0.722464
Maidstone Barracks,MDB,51.277288,0.514148
Maidstone East,MDE,51.277729,0.520618
Maidstone West,MDW,51.270943,0.515975
Malden Manor,MAL,51.384579,-0.261118
Mallaig,MLG,57.005497,-5.8306
Malton,MLT,54.13155,-0.798593
Malvern Link,MVL,52.12534,-2.31987
Manchester Airport,MIA,53.361568,-2.268941
Manchester Oxford Road,MCO,53.47398,-2.242531
Manchester Piccadilly,MAN,53.476704,-2.228991
Manchester United Football Club,MUF,53.463056,-2.291389
Manchester Victoria,MCV,53.487465,-2.242607
Manea,MNE,52.497692,0.178779
Manningtree,MNG,51.948818,1.045653
Manor Park,MNP,51.552296,0.045309
Manor Road,MNR,53.394772,-3.171468
Manorbier,MRB,51.660114,-4.7919
Manors,MAS,54.972698,-1.606296
Mansfield,MFT,53.142232,-1.198192
Mansfield Woodhouse,MSW,53.1636,-1.201651
March,MCH,52.560432,0.090409
Marden,MRN,51.175785,0.49359
Margate,MAR,51.384926,1.371737
Market Harborough,MHR,52.480366,-0.908868
Market Rasen,MKR,53.384441,-0.337075
Markinch,MNC,56.200069,-3.131414
Marks Tey,MKT,51.880695,0.782372
Marlow,MLW,51.570995,-0.766452
Marple,MPL,53.400763,-2.057168
Marsden,MSN,53.602737,-1.93197
Marsh Barton,MBT,50.704,-3.521
Marske,MSK,54.587433,-1.018892
Marston Green,MGN,52.467159,-1.755616
Martin Mill,MTM,51.170593,1.348907
Martins Heron,MAO,51.406689,-0.720386
Marton,MTO,54.543808,-1.197708
Maryhill,MYH,55.898026,-4.301396
Maryland,MYL,51.545784,0.006075
Maryport,MRY,54.711597,-3.494738
Matlock Bath,MTB,53.121941,-1.55766
Matlock,MAT,53.138126,-1.558988
Mauldeth Road,MAU,53.432984,-2.209325
Maxwell Park,MAX,55.837124,-4.289813
Maybole,MAY,55.354485,-4.686269
Maze Hill,MZH,51.482883,0.003311
Meadowhall,MHS,53.417046,-1.411669
Meldreth,MEL,52.090687,0.00853
Melksham,MKM,51.379803,-2.14449
Melrose,MLS,55.59753,-2.715786
Melton,MES,52.103683,1.338085
Melton Mowbray,MMO,52.760643,-0.885564
Menheniot,MEN,50.426183,-4.40938
Menston,MNN,53.891895,-1.735205
Meols,MEO,53.399356,-3.15431
Meols Cop,MEC,53.645519,-2.975696
Meopham,MEP,51.386368,0.356977
Meridian Water,MRW,51.61,-0.0501
Merryton,MEY,55.749013,-3.978667
Merstham,MHM,51.264164,-0.149555
Merthyr Tydfil,MER,51.745476,-3.377458
Merthyr Vale,MEV,51.686607,-3.336622
Metheringham,MGM,53.138866,-0.391421
Metrocentre,MCE,54.958492,-1.662656
Mexborough,MEX,53.490986,-1.28855
Micheldever,MIC,51.182034,-1.260283
Micklefield,MIK,53.788715,-1.324507
Middlesbrough,MBR,54.579086,-1.232596
Middlewood,MDL,53.359142,-2.084111
Midgham,MDG,51.395805,-1.177683
Milford (Surrey),MLF,51.163849,-0.63701
Milford Haven,MFH,51.715977,-5.041485
Mill Hill (Lancs),MLH,53.735433,-2.501433
Mill Hill Broadway,MIL,51.612823,-0.249522
Millbrook (Bedfordshire),MLB,52.053822,-0.532724
Millbrook (Hants),MBK,50.911434,-1.433848
Milliken Park,MIN,55.825157,-4.533405
Millom,MLM,54.210831,-3.271108
Mills Hill,MIH,53.551393,-2.171484
Milngavie,MLN,55.94091,-4.315152
Milton Keynes Central,MKC,52.034357,-0.77341
Minffordd,MFF,52.926464,-4.085625
Minster,MSR,51.329807,1.317431
Mirfield,MIR,53.671577,-1.692696
Mistley,MIS,51.943417,1.080205
Mitcham Eastfields,MTC,51.407725,-0.154764
Mitcham Junction,MIJ,51.392887,-0.157308
Mobberley,MOB,53.329941,-2.333309
Monifieth,MON,56.480167,-2.818249
Monks Risborough,MRS,51.735134,-0.829882
Montpelier,MTP,51.468205,-2.588525
Montrose,MTS,56.71286,-2.47207
Moorfields,MRF,53.408534,-2.989182
Moorgate,MOG,51.5186,-0.09027
Moorside,MSD,53.516354,-2.35146
Moorthorpe,MRP,53.594452,-1.304952
Morar,MRR,56.969788,-5.821991
Morchard Road,MRD,50.831841,-3.776424
Morden South,MDS,51.396248,-0.200299
Morecambe,MCM,54.070322,-2.869379
Moreton (Dorset),MTN,50.701057,-2.312914
Moreton (Merseyside),MRT,53.407917,-3.113156
Moreton-In-Marsh,MIM,51.992336,-1.7014
Morfa Mawddach,MFA,52.7071,-4.032224
Morley,MLY,53.75037,-1.592033
Morpeth,MPT,55.162537,-1.682903
Mortimer,MOR,51.371941,-1.035979
Mortlake,MTL,51.468288,-0.266575
Moses Gate,MSS,53.55604,-2.400931
Moss Side,MOS,53.764431,-2.943548
Mossley (Manchester),MSL,53.514963,-2.041263
Mossley Hill,MSH,53.379025,-2.915464
Mosspark,MPK,55.838947,-4.336232
Moston,MSO,53.52264,-2.171925
Motherwell,MTH,55.791927,-3.995234
Motspur Park,MOT,51.395042,-0.23916
Mottingham,MTG,51.439804,0.050353
Mottisfont & Dunbridge,DBG,51.033987,-1.546942
Mouldsworth,MLD,53.231976,-2.732546
Moulsecoomb,MCB,50.844616,-0.12076
Mount Florida,MFL,55.826859,-4.262067
Mount Vernon,MTV,55.839882,-4.136638
Mountain Ash,MTA,51.683422,-3.378478
Muir of Ord,MOO,57.518017,-4.460981
Muirend,MUI,55.810459,-4.273888
Musselburgh,MUB,55.930225,-3.062719
Mytholmroyd,MYT,53.729496,-1.981773
Nafferton,NFN,54.011684,-0.386948
Nailsea & Backwell,NLS,51.419357,-2.750661
Nairn,NRN,57.580227,-3.873024
Nantwich,NAN,53.063533,-2.518868
Narberth,NAR,51.800156,-4.726567
Narborough,NBR,52.571712,-1.20318
Navigation Road,NVR,53.395412,-2.3435
Neath,NTH,51.662315,-3.807267
Needham Market,NMT,52.156437,1.051047
Neilston,NEI,55.782364,-4.426945
Nelson,NEL,53.834469,-2.214223
Neston,NES,53.292419,-3.063769
Netherfield,NET,52.960972,-1.078427
Nethertown,NRT,54.456699,-3.566201
Netley,NTL,50.874977,-1.341913
New Barnet,NBA,51.648521,-0.172972
New Beckenham,NBC,51.416988,-0.035525
New Brighton,NBN,53.43726,-3.049191
New Clee,NCE,53.574455,-0.060771
New Cross Gate,NXG,51.475544,-0.041655
New Cross,NWX,51.476299,-0.032984
New Cumnock,NCK,55.402271,-4.182457
New Eltham,NEH,51.437649,0.0704
New Holland,NHL,53.702106,-0.360936
New Hythe,NHE,51.312401,0.455075
New Lane,NLN,53.611298,-2.86758
New Malden,NEM,51.403393,-0.256084
New Mills Central,NMC,53.364567,-2.007485
New Mills Newtown,NMN,53.359169,-2.00898
New Milton,NWM,50.755836,-1.658313
New Pudsey,NPD,53.804573,-1.679581
New Southgate,NSG,51.613876,-0.142586
Newark Castle,NCT,53.079987,-0.813151
Newark Northgate,NNG,53.082542,-0.799644
Newbridge,NBE,51.665686,-3.142116
Newbury Park,ZNP,51.57582,0.08971
Newbury Racecourse,NRC,51.39814,-1.308549
Newbury,NBY,51.397599,-1.322608
Newcastle,NCL,54.968243,-1.617264
Newcastle Airport,APN,55.03588,-1.71209
Newcourt,NCO,50.705418,-3.47259
Newcraighall,NEW,55.932619,-3.091582
Newhaven Harbour,NVH,50.790398,0.054433
Newhaven Town,NVN,50.794888,0.054627
Newington,NGT,51.353733,0.66269
Newmarket,NMK,52.237904,0.406249
Newport (Essex),NWE,51.97995,0.216176
Newport (South Wales),NWP,51.590145,-2.998873
Newquay,NQY,50.415245,-5.075769
Newstead,NSD,53.069961,-1.222036
Newton,NTN,55.819256,-4.133907
Newton Abbot,NTA,50.529507,-3.599957
Newton Aycliffe,NAY,54.613171,-1.5881
Newton for Hyde,NWN,53.45623,-2.067735
Newton Heath and Moston,NMM,53.50375,-2.1854
Newton St Cyres,NTC,50.77879,-3.588594
Newtongrange,NEG,55.865652,-3.066151
Newton-Le-Willows,NLW,53.452873,-2.614369
Newtonmore,NWR,57.059673,-4.118831
Newton-On-Ayr,NOA,55.473541,-4.62632
Newtown (Powys),NWT,52.512291,-3.311432
Ninian Park,NNP,51.475861,-3.200846
Nitshill,NIT,55.811531,-4.360126
Norbiton,NBT,51.411907,-0.284525
Norbury,NRB,51.411236,-0.123492
Normans Bay,NSB,50.825382,0.389669
Normanton,NOR,53.700249,-1.424378
North Berwick,NBW,56.057545,-2.728989
North Camp,NCM,51.275517,-0.731195
North Dulwich,NDL,51.454712,-0.087163
North Fambridge,NFA,51.64859,0.681703
North Llanrwst,NLR,53.141348,-3.792723
North Queensferry,NQU,56.013168,-3.395426
North Road,NRD,54.536667,-1.554856
North Sheen,NSH,51.464977,-0.285423
North Walsham,NWA,52.817383,1.385142
North Wembley,NWB,51.562355,-0.303394
Northallerton,NTR,54.333084,-1.441718
Northampton,NMP,52.237433,-0.906689
Northfield,NFD,52.408073,-1.96469
Northfleet - Cooper Arms,NFL,51.446384,0.324092
Northolt Park,NLT,51.557762,-0.359827
Northumberland Park,NUM,51.601643,-0.053558
Northwich,NWI,53.261414,-2.496815
Norton Bridge,NTB,52.865513,-2.190102
Norwich,NRW,52.627121,1.306879
Norwood Junction,NWD,51.396965,-0.075201
Nottingham,NOT,52.946905,-1.146441
Nuneaton,NUN,52.526436,-1.463431
Nunhead,NHD,51.466747,-0.053546
Nunthorpe,NNT,54.528347,-1.170195
Nutbourne,NUT,50.846313,-0.883508
Nutfield,NUF,51.22702,-0.132425
Oakengates,OKN,52.693104,-2.451245
Oakham,OKM,52.671913,-0.734019
Oakleigh Park,OKL,51.637627,-0.166189
Oban,OBN,56.411758,-5.473841
Ockendon,OCK,51.521687,0.290439
Ockley,OLY,51.150955,-0.335692
Okehampton,OKE,50.731679,-3.988267
Old Hill,OHL,52.470993,-2.055913
Old Roan,ORN,53.486871,-2.951095
Old Street,OLD,51.525776,-0.088515
Oldfield Park,OLF,51.37978,-2.380742
Olton,OLT,52.43848,-1.804313
Ore,ORE,50.866959,0.590783
Ormskirk,OMS,53.569014,-2.881615
Orpington,ORP,51.373463,0.089049
Orrell,ORR,53.530548,-2.709028
Orrell Park,OPK,53.461991,-2.962908
Otford,OTF,51.312141,0.196757
Oulton Broad North,OUN,52.478226,1.716998
Oulton Broad South,OUS,52.469528,1.707425
Outwood,OUT,53.714115,-1.512068
Overpool,OVE,53.284155,-2.924788
Overton,OVR,51.253971,-1.25913
Oxenholme Lake District,OXN,54.305169,-2.722249
Oxford,OXF,51.753549,-1.270037
Oxford Parkway,OXP,51.8042,-1.2745
Oxshott,OXS,51.336578,-0.361993
Oxted,OXT,51.257298,-0.005075
Paddock Wood,PDW,51.182453,0.389485
Padgate,PDG,53.405514,-2.556521
Paignton,PGN,50.434658,-3.564361
Paisley Canal,PCN,55.840878,-4.422606
Paisley Gilmour Street,PYG,55.848026,-4.424646
Paisley St James,PYJ,55.852165,-4.442486
Palmers Green,PAL,51.618736,-0.109164
Pangbourne,PAN,51.485231,-1.090522
Pannal,PNL,53.958687,-1.533605
Pantyffynnon,PTF,51.778835,-3.997481
Par,PAR,50.355263,-4.704752
Parbold,PBL,53.590856,-2.770679
Park Street,PKT,51.725651,-0.340727
Parkstone (Dorset),PKS,50.723049,-1.94897
Parson Street,PSN,51.432758,-2.60991
Partick,PTK,55.869987,-4.310921
Parton,PRN,54.569795,-3.580867
Patchway,PWY,51.52578,-2.562647
Patricroft,PAT,53.484745,-2.357919
Patterton,PTT,55.790443,-4.334935
Peartree,PEA,52.89684,-1.473198
Peckham Rye,PMR,51.470585,-0.067782
Pegswood,PEG,55.178616,-1.64509
Pemberton,PEM,53.530427,-2.670225
Pembrey & Burry Port,PBY,51.683487,-4.247899
Pembroke Dock,PMD,51.69434,-4.93729
Pembroke,PMB,51.673546,-4.905563
Penally,PNA,51.65905,-4.72243
Penarth,PEN,51.435669,-3.173908
Pencoed,PCD,51.524567,-3.50053
Pengam,PGM,51.670681,-3.230578
Penge East,PNE,51.419125,-0.055566
Penge West,PNW,51.417419,-0.061402
Penhelig,PHG,52.545212,-4.035051
Penistone,PNS,53.525757,-1.62134
Penkridge,PKG,52.723611,-2.119447
Penmaenmawr,PMW,53.270635,-3.923514
Penmere,PNM,50.149736,-5.083108
Penrhiwceiber,PER,51.671906,-3.363662
Penrhyndeudraeth,PRH,52.928623,-4.064905
Penrith,PNR,54.661831,-2.758044
Penryn,PYN,50.170206,-5.110885
Pensarn,PES,52.830692,-4.112216
Penshurst,PHR,51.197449,0.174125
Pentre-Bach,PTB,51.724976,-3.362362
Pen-Y-Bont,PNY,52.273914,-3.321972
Penychain,PNC,52.903,-4.33845
Penyffordd,PNF,53.143253,-3.055472
Penzance,PNZ,50.12162,-5.532489
Perranwell,PRW,50.216431,-5.111868
Perry Barr,PRY,52.516361,-1.90196
Pershore,PSH,52.130249,-2.071555
Perth,PTH,56.39275,-3.440068
Peterborough,PBO,52.574947,-0.24981
Petersfield,PTR,51.006924,-0.940951
Petts Wood,PET,51.388996,0.075393
Pevensey & Westham,PEV,50.815899,0.325291
Pevensey Bay,PEB,50.818249,0.342453
Pewsey,PEW,51.342411,-1.771691
Pickering Eastgate,PIZ,54.24349,-0.77435
Pilning,PIL,51.556502,-2.627192
Pinhoe,PIN,50.738079,-3.469582
Pitlochry,PIT,56.70256,-3.736085
Pitsea,PSE,51.560387,0.508806
Pleasington,PLS,53.730961,-2.544142
Plockton,PLK,57.333172,-5.666848
Pluckley,PLC,51.156578,0.748571
Plumley,PLM,53.274809,-2.419615
Plumpton,PMP,50.929066,-0.060435
Plumstead,PLU,51.48959,0.082828
Plymouth,PLY,50.377762,-4.143386
Pokesdown,POK,50.731022,-1.82568
Polegate,PLG,50.820934,0.251705
Polesworth,PSW,52.625893,-1.60995
Pollokshaws East,PWE,55.824589,-4.287476
Pollokshaws West,PWW,55.824318,-4.301826
Pollokshields East,PLE,55.841103,-4.269287
Pollokshields West,PLW,55.83736,-4.277043
Polmont,PMT,55.984856,-3.716614
Polsloe Bridge,POL,50.731274,-3.501785
Ponders End,PON,51.642693,-0.034453
Pontarddulais,PTD,51.716866,-4.045417
Pontefract Baghill,PFR,53.691517,-1.303355
Pontefract Monkhill,PFM,53.698711,-1.304749
Pontefract Tanshelf,POT,53.694313,-1.319964
Pontlottyn,PLT,51.74659,-3.278995
Pontyclun,PYC,51.524113,-3.390959
Pont-Y-Pant,PYP,53.065033,-3.862462
Pontypool and New Inn,PPL,51.697926,-3.014277
Pontypridd,PPD,51.599312,-3.342715
Poole,POO,50.718559,-1.982964
Poppleton,POP,53.976345,-1.147657
Port Glasgow,PTG,55.9342,-4.689432
Port Sunlight,PSL,53.349123,-2.998248
Port Talbot Parkway,PTA,51.591671,-3.781362
Portchester,PTC,50.848389,-1.126361
Porth,POR,51.61203,-3.408079
Porthmadog,PTM,52.930954,-4.136431
Portlethen,PLN,57.060455,-2.128577
Portslade,PLD,50.836044,-0.204898
Portsmouth & Southsea,PMS,50.797756,-1.090417
Portsmouth Arms,PMA,50.956768,-3.950633
Portsmouth Harbour,PMH,50.796097,-1.108895
Portway Park & Ride,PRI,51.488611,-2.688056
Possilpark & Parkhouse,PPK,55.890717,-4.259381
Potters Bar,PBR,51.697392,-0.192715
Poulton-Le-Fylde,PFY,53.848128,-2.990212
Poynton,PYT,53.350398,-2.13448
Prees,PRS,52.89962,-2.689765
Prescot,PSC,53.423535,-2.799022
Prestatyn,PRT,53.336491,-3.407164
Prestbury,PRB,53.293465,-2.14549
Preston,PRE,53.755721,-2.707191
Preston Park,PRP,50.846054,-0.154787
Prestonpans,PST,55.953426,-2.973665
Prestwick International Airport,PRA,55.511513,-4.616166
Prestwick Town,PTW,55.501675,-4.613935
Priesthill & Darnley,PTL,55.812737,-4.344246
Princes Risborough,PRR,51.717697,-0.844059
Prittlewell,PRL,51.550476,0.71167
Prudhoe,PRU,54.966072,-1.864077
Pulborough,PUL,50.957355,-0.517751
Purfleet,PFL,51.481358,0.236575
Purley Oaks,PUO,51.346989,-0.098843
Purley,PUR,51.337334,-0.113592
Putney,PUT,51.46125,-0.216463
Pwllheli,PWL,52.887825,-4.416754
Pye Corner,PYE,51.579513,-3.038295
Pyle,PYL,51.527199,-3.702439
Quakers Yard,QYD,51.660686,-3.322844
Queenborough,QBR,51.416473,0.749756
Queens Park (Glasgow),QPK,55.835747,-4.267368
Queens Park (London),QPW,51.533916,-0.204966
Queens Road Peckham,QRP,51.47401,-0.057553
Queenstown Road (Battersea),QRB,51.474552,-0.146819
Quintrell Downs,QUI,50.403908,-5.029838
Radcliffe (Nottinghamshire),RDF,52.948906,-1.031059
Radlett,RDT,51.68486,-0.317626
Radley,RAD,51.685588,-1.240398
Radyr,RDR,51.515831,-3.248028
Rainford,RNF,53.51694,-2.789454
Rainham (Essex),RNM,51.517449,0.190716
Rainham (Kent),RAI,51.36657,0.611698
Rainhill,RNH,53.417129,-2.766398
Ramsgate,RAM,51.340767,1.405833
Ramsgreave & Wilpshire,RGW,53.787868,-2.47657
Rannoch,RAN,56.685318,-4.576208
Rauceby,RAU,52.985081,-0.455247
Ravenglass for Eskdale,RAV,54.355804,-3.409456
Ravensbourne,RVB,51.413803,-0.0069
Ravensthorpe,RVN,53.675964,-1.653298
Rawcliffe,RWC,53.688141,-0.961174
Rayleigh,RLG,51.589851,0.601393
Raynes Park,RAY,51.409294,-0.22998
Reading,RDG,51.458767,-0.972172
Reading Green Park,RGP,51.426667,-1.001389
Reading West,RDW,51.455077,-0.990143
Rectory Road,REC,51.55872,-0.068379
Redbridge,RDB,50.919697,-1.470737
Redcar Central,RCC,54.615692,-1.069318
Redcar East,RCE,54.609257,-1.05088
Reddish North,RDN,53.448956,-2.15656
Reddish South,RDS,53.435873,-2.159028
Redditch,RDC,52.306337,-1.945248
Redhill,RDH,51.240124,-0.164851
Redland,RDA,51.468792,-2.598875
Redruth,RED,50.233111,-5.225877
Reedham (London),RHM,51.332108,-0.123854
Reedham (Norfolk),REE,52.564045,1.558941
Reigate,REI,51.241623,-0.203474
Renton,RTN,55.970566,-4.586181
Reston,RSN,55.8506,-2.1972
Retford,RET,53.315872,-0.94772
Rhiwbina,RHI,51.520687,-3.213561
Rhoose Cardiff Airport,RIA,51.387454,-3.347599
Rhosneigr,RHO,53.234782,-4.505768
Rhyl,RHL,53.318409,-3.489144
Rhymney,RHY,51.759064,-3.289494
Ribblehead,RHD,54.205776,-2.36087
Rice Lane,RIL,53.457738,-2.962253
Richmond,RMD,51.462505,-0.301346
Rickmansworth,RIC,51.640447,-0.473013
Riddlesdown,RDD,51.332611,-0.099436
Ridgmont,RID,52.026588,-0.594903
Riding Mill,RDM,54.949066,-1.97186
Risca & Pontymister,RCA,51.60443,-3.093533
Rishton,RIS,53.763813,-2.420165
Robertsbridge,RBR,50.984726,0.469092
Robroyston,RRN,55.887581,-4.172291
Roby,ROB,53.410034,-2.855956
Rochdale,RCD,53.610293,-2.153444
Roche,ROC,50.418911,-4.830658
Rochester,RTR,51.384968,0.510698
Rochford,RFD,51.581276,0.701959
Rock Ferry,RFY,53.372269,-3.010898
Rogart,ROG,57.988979,-4.158224
Rogerstone,ROR,51.593413,-3.065478
Rolleston,ROL,53.065536,-0.900095
Roman Bridge,RMB,53.044319,-3.92125
Romford,RMF,51.575016,0.181986
Romiley,RML,53.414026,-2.089307
Romsey,ROM,50.992641,-1.492716
Roose,ROO,54.115157,-3.19457
Rose Grove,RSG,53.786686,-2.282282
Rose Hill Marple,RSH,53.396176,-2.076502
Rosyth,ROS,56.046055,-3.427114
Rotherham Central,RMC,53.429356,-1.358811
Rotherhithe,ROE,51.50098,-0.05353
Roughton Road,RNR,52.917828,1.299239
Rowlands Castle,RLN,50.892864,-0.957748
Rowley Regis,ROW,52.477299,-2.030885
Roy Bridge,RYB,56.888184,-4.83645
Roydon,RYN,51.775494,0.035088
Royston,RYS,52.053509,-0.026686
Ruabon,RUA,52.986935,-3.044214
Rufford,RUF,53.634817,-2.806792
Rugby,RUG,52.378719,-1.249263
Rugeley Town,RGT,52.754672,-1.936963
Rugeley Trent Valley,RGL,52.769451,-1.930309
Runcorn,RUN,53.338696,-2.73919
Runcorn East,RUE,53.326929,-2.665102
Ruskington,RKT,53.041615,-0.380127
Ruswarp,RUS,54.470367,-0.626664
Rutherglen,RUT,55.830448,-4.212766
Ryde Esplanade,RYD,50.733517,-1.159676
Ryde Pier Head,RYP,50.738914,-1.159578
Ryde St Johns Road,RYR,50.72361,-1.157028
Ryder Brow,RRB,53.457916,-2.176173
Rye,RYE,50.951916,0.730782
Rye House,RYH,51.76881,0.005796
Salford Central,SFD,53.482913,-2.254686
Salford Crescent,SLD,53.486462,-2.275715
Salfords,SAF,51.201412,-0.162096
Salhouse,SAH,52.675083,1.391886
Salisbury,SAL,51.070915,-1.805864
Saltaire,SAE,53.838066,-1.790246
Saltash,STS,50.407108,-4.209449
Saltburn,SLB,54.583462,-0.974116
Saltcoats,SLT,55.633648,-4.784804
Saltmarshe,SAM,53.722675,-0.808765
Salwick,SLW,53.781536,-2.817973
Sandal & Agbrigg,SNA,53.664574,-1.485404
Sandbach,SDB,53.150113,-2.393528
Sanderstead,SNR,51.348694,-0.093017
Sandhills,SDL,53.430021,-2.9915
Sandhurst,SND,51.34642,-0.803911
Sandling,SDG,51.09021,1.065995
Sandown,SAN,50.657101,-1.162457
Sandplace,SDP,50.386684,-4.464549
Sandwell & Dudley,SAD,52.508431,-2.011281
Sandwich,SDW,51.269711,1.343208
Sandy,SDY,52.124931,-0.28065
Sankey for Penketh,SNK,53.392452,-2.651094
Sanquhar,SQH,55.370633,-3.923437
Sarn,SRR,51.540049,-3.589196
Saundersfoot,SDF,51.722084,-4.718965
Saunderton,SDR,51.675751,-0.825626
Sawbridgeworth,SAW,51.814625,0.160177
Saxilby,SXY,53.267193,-0.664018
Saxmundham,SAX,52.215309,1.489965
Scarborough,SCA,54.2798,-0.405666
Scotscalder,SCT,58.482891,-3.553764
Scotstounhill,SCH,55.884491,-4.351765
Scunthorpe,SCU,53.58617,-0.650951
Sea Mills,SML,51.480209,-2.649427
Seaburn,SEB,54.929558,-1.38667
Seaford,SEF,50.772495,0.10045
Seaforth & Litherland,SFL,53.466336,-3.005619
Seaham,SEA,54.836835,-1.341019
Seamer,SEM,54.241287,-0.416367
Seascale,SSC,54.395351,-3.48476
Seaton Carew,SEC,54.657959,-1.200106
Seer Green & Jordans,SRG,51.609524,-0.607809
Selby,SBY,53.78336,-1.06355
Selhurst,SRS,51.392704,-0.089759
Selkirk,SKK,55.516089,-2.806171
Sellafield,SEL,54.416571,-3.510293
Selling,SEG,51.277817,0.940801
Selly Oak,SLY,52.441322,-1.936708
Settle,SET,54.066897,-2.280704
Seven Kings,SVK,51.563992,0.096325
Seven Sisters,SVS,51.584007,-0.074521
Sevenoaks,SEV,51.27734,0.182193
Severn Beach,SVB,51.559864,-2.664227
Severn Tunnel Junction,STJ,51.584629,-2.777917
Shadwell,SDE,51.51093,-0.05743
Shalford,SFR,51.214264,-0.566789
Shanklin,SHN,50.633842,-1.179841
Shawfair,SFI,55.91993,-3.07872
Shawford,SHW,51.021488,-1.328428
Shawlands,SHL,55.828987,-4.292521
Sheerness-On-Sea,SSS,51.440559,0.758397
Sheffield,SHF,53.378639,-1.463297
Shelford,SED,52.149517,0.139805
Shenfield,SNF,51.630615,0.330602
Shenstone,SEN,52.638985,-1.844528
Shepherds Bush,SPB,51.506,-0.218
Shepherds Well,SPH,51.188339,1.229952
Shepley,SPY,53.588913,-1.703863
Shepperton,SHP,51.397091,-0.447521
Shepreth,STH,52.114567,0.031517
Sherborne,SHE,50.94405,-2.513816
Sherburn-In-Elmet,SIE,53.797142,-1.23176
Sheringham,SHM,52.94096,1.210195
Shettleston,SLS,55.852959,-4.159731
Shieldmuir,SDM,55.775532,-3.952944
Shifnal,SFN,52.666405,-2.371116
Shildon,SHD,54.626816,-1.637515
Shiplake,SHI,51.51121,-0.882452
Shipley,SHY,53.833553,-1.773558
Shippea Hill,SPP,52.430218,0.412299
Shipton,SIP,51.866131,-1.591864
Shirebrook,SHB,53.20369,-1.201995
Shirehampton,SHH,51.484216,-2.679162
Shireoaks,SRO,53.32481,-1.16821
Shirley,SRL,52.403473,-1.845632
Shoeburyness,SRY,51.531414,0.795616
Sholing,SHO,50.896687,-1.36436
Shoreditch High Street,SDC,51.523433,-0.075614
Shoreham (Kent),SEH,51.332092,0.187665
Shoreham-By-Sea,SSE,50.834358,-0.271709
Shortlands,SRT,51.405548,0.002798
Shotton,SHT,53.21352,-3.037728
Shotts,SHS,55.818302,-3.80024
Shrewsbury,SHR,52.711369,-2.74897
Sidcup,SID,51.434361,0.103342
Sileby,SIL,52.731595,-1.109979
Silecroft,SIC,54.225966,-3.334281
Silkstone Common,SLK,53.537239,-1.560883
Silver Street,SLV,51.615364,-0.067415
Silverdale,SVR,54.169922,-2.804164
Singer,SIN,55.907711,-4.405983
Sittingbourne,SIT,51.342201,0.733817
Skegness,SKG,53.143032,0.333926
Skewen,SKE,51.660789,-3.847692
Skipton,SKI,53.958691,-2.025878
Slade Green,SGR,51.466957,0.189792
Slaithwaite,SWT,53.624275,-1.87901
Slateford,SLA,55.926731,-3.243476
Sleaford,SLR,52.995274,-0.410174
Sleights,SLH,54.46088,-0.66246
Slough,SLO,51.511921,-0.591803
Small Heath,SMA,52.46283,-1.858673
Smallbrook Junction,SAB,50.712822,-1.15721
Smethwick Galton Bridge,SGB,52.501826,-1.980632
Smethwick Rolfe Street,SMR,52.49632,-1.969885
Smithy Bridge,SMB,53.633266,-2.113394
Snaith,SNI,53.693192,-1.027678
Snodland,SDA,51.330521,0.448864
Snowdown,SWO,51.214886,1.213187
Sole Street,SOR,51.38327,0.376939
Solihull,SOL,52.415081,-1.78972
Soham,SOJ,52.33415,0.3277
Somerleyton,SYT,52.509892,1.653333
South Acton,SAT,51.499813,-0.269697
South Bank,SBK,54.582375,-1.186112
South Bermondsey,SBM,51.487446,-0.054101
South Croydon,SCY,51.362194,-0.093903
South Elmsall,SES,53.595234,-1.285286
South Greenford,SGN,51.533339,-0.336403
South Gyle,SGL,55.936951,-3.298234
South Hampstead,SOH,51.541424,-0.178759
South Kenton,SOK,51.56963,-0.308894
South Merton,SMO,51.40353,-0.205764
South Milford,SOM,53.781994,-1.251772
South Ruislip,SRU,51.556742,-0.398812
South Tottenham,STO,51.58036,-0.071788
South Wigston,SWS,52.582451,-1.132918
South Woodham Ferrers,SOF,51.64957,0.606512
Southall,STL,51.505884,-0.378513
Southampton Airport Parkway,SOA,50.950638,-1.36362
Southampton Central,SOU,50.907742,-1.413983
Southampton Town Quay,STQ,50.895035,-1.405778
Southbourne,SOB,50.848343,-0.907601
Southbury,SBU,51.648396,-0.052998
Southease,SEE,50.831284,0.03066
Southend Airport,SIA,51.5687,0.704084
Southend Central,SOC,51.536972,0.712305
Southend East,SOE,51.539234,0.731196
Southend Victoria,SOV,51.542389,0.711184
Southminster,SMN,51.660873,0.835397
Southport,SOP,53.646597,-3.002229
Southwick,SWK,50.832928,-0.236254
Sowerby Bridge,SOW,53.707886,-1.90756
Spalding,SPA,52.788418,-0.156722
Spean Bridge,SBR,56.889839,-4.920321
Spital,SPI,53.339869,-2.993903
Spondon,SPO,52.912267,-1.410627
Spooner Row,SPN,52.535057,1.086088
Spring Road,SRI,52.44392,-1.83666
Springburn,SPR,55.881363,-4.230064
Springfield,SPF,56.295116,-3.051808
Squires Gate,SQU,53.776756,-3.049403
St Albans,SAC,51.748829,-0.326842
St Albans Abbey,SAA,51.744675,-0.342422
St Andrews Road,SAR,51.513214,-2.696009
St Annes-On-The-Sea,SAS,53.753383,-3.029662
St Austell,SAU,50.338863,-4.789557
St Bees,SBS,54.492465,-3.591263
St Budeaux Ferry Road,SBF,50.401241,-4.186661
St Budeaux Victoria Road,SBV,50.403008,-4.188144
St Columb Road,SCR,50.399002,-4.94085
St Denys,SDN,50.921997,-1.3882
St Erth,SER,50.171074,-5.443694
St Germans,SGM,50.394386,-4.308757
St Helens Central,SNH,53.453117,-2.730328
St Helens Junction,SHJ,53.433525,-2.699892
St Helier,SIH,51.389935,-0.199115
St Ives,SIV,50.208759,-5.477247
St James' Park,SJP,50.731094,-3.523202
St James Street,SJS,51.580612,-0.032804
St Johns,SAJ,51.468937,-0.023225
St Keyne,SKN,50.422714,-4.462204
St Leonards Warrior Square,SLQ,50.855942,0.560326
St Margarets (London),SMG,51.454689,-0.320352
St Margarets (Herts),SMT,51.787773,0.000837
St Mary Cray,SMY,51.394714,0.107269
St Michaels,STM,53.375649,-2.952704
St Neots,SNO,52.231438,-0.247244
St Peters,STZ,54.91066,-1.38387
Stadium of Light,STI,54.917837,-1.383751
Stafford,STA,52.804466,-2.123088
Staines,SNS,51.432873,-0.502415
Stallingborough,SLL,53.587158,-0.182581
Stalybridge,SYB,53.484471,-2.06264
Stamford,SMD,52.647358,-0.480474
Stamford Hill,SMH,51.575035,-0.076343
Stanford-Le-Hope,SFO,51.513634,0.422634
Stanlow & Thornton,SNT,53.277996,-2.841318
Stansted Airport,SSD,51.888979,0.26162
Stansted Mountfitchet,SST,51.901495,0.199642
Staplehurst,SPU,51.171856,0.55061
Stapleton Road,SRD,51.468052,-2.565747
Starbeck,SBE,53.999004,-1.501116
Starcross,SCS,50.627731,-3.447757
Staveley,SVL,54.375629,-2.818961
Stechford,SCF,52.485241,-1.810006
Steeton & Silsden,SON,53.900257,-1.946704
Stepps,SPS,55.890026,-4.147389
Stevenage,SVG,51.899025,-0.206437
Stevenston,STV,55.633533,-4.749829
Stewartby,SWR,52.06974,-0.520596
Stewarton,STT,55.681633,-4.519346
Stirling,STG,56.119114,-3.934915
Stockport,SPT,53.4049,-2.162419
Stocksfield,SKS,54.94635,-1.917227
Stocksmoor,SSM,53.594349,-1.723478
Stockton,STK,54.56971,-1.31784
Stoke Mandeville,SKM,51.78772,-0.783575
Stoke Newington,SKW,51.565079,-0.07244
Stoke-On-Trent,SOT,53.008012,-2.181119
Stone,SNE,52.90832,-2.154951
Stone Crossing,SCG,51.452053,0.263924
Stonebridge Park,SBP,51.543961,-0.275233
Stonegate,SOG,51.020184,0.364016
Stonehaven,STN,56.966888,-2.225286
Stonehouse,SHU,51.746029,-2.279516
Stoneleigh,SNL,51.363701,-0.247546
Stourbridge Junction,SBJ,52.447563,-2.133857
Stourbridge Town,SBT,52.456539,-2.142716
Stow,SOI,55.691398,-2.857782
Stowmarket,SMK,52.190105,1.000662
Stranraer,STR,54.909626,-5.024806
Stratford International,SFA,51.544306,-0.009882
Stratford (London),SRA,51.542358,-0.004175
Stratford-upon-Avon Parkway,STY,52.20642,-1.7307
Stratford-upon-Avon,SAV,52.19376,-1.716148
Strathcarron,STC,57.422585,-5.429166
Strawberry Hill,STW,51.439682,-0.339597
Streatham Common,SRC,51.418629,-0.136136
Streatham Hill,SRH,51.43829,-0.128136
Streatham,STE,51.425755,-0.131535
Streethouse,SHC,53.676158,-1.399346
Strines,SRN,53.374932,-2.033544
Stromeferry,STF,57.352688,-5.550702
Strood,SOO,51.396,0.4998
Stroud,STD,51.744358,-2.218673
Sturry,STU,51.301018,1.121644
Styal,SYA,53.348137,-2.240313
Sudbury & Harrow Road,SUD,51.554459,-0.316676
Sudbury Hill Harrow,SDH,51.558423,-0.336092
Sudbury Suffolk,SUY,52.035591,0.735111
Sugar Loaf,SUG,52.082237,-3.686991
Summerston,SUM,55.89835,-4.283814
Sunbury,SUU,51.418262,-0.416611
Sunderland,SUN,54.90617,-1.382357
Sundridge Park,SUP,51.413338,0.020402
Sunningdale,SNG,51.391312,-0.633135
Sunnymeads,SNY,51.470451,-0.558781
Surbiton,SUR,51.392406,-0.303942
Surrey Quays,SQE,51.49279,0.048114
Sutton (London),SUO,51.360126,-0.190223
Sutton Coldfield,SUT,52.565269,-1.824404
Sutton Common,SUC,51.375519,-0.196799
Sutton Parkway,SPK,53.122108,-1.236385
Swale,SWL,51.390434,0.748194
Swanley,SAY,51.392727,0.16755
Swanscombe- George & Dragon,SWM,51.449356,0.309854
Swansea,SWA,51.625103,-3.941598
Swanwick,SNW,50.875427,-1.265151
Sway,SWY,50.784454,-1.609864
Swaythling,SWG,50.941719,-1.376552
Swinderby,SWD,53.168732,-0.702985
Swindon,SWI,51.565437,-1.786448
Swineshead,SWE,52.969593,-0.186255
Swinton (Manchester),SNN,53.514822,-2.337384
Swinton (South Yorks),SWN,53.487484,-1.305195
Sydenham Hill,SYH,51.433002,-0.079444
Sydenham,SYD,51.427208,-0.055232
Syon Lane,SYL,51.481735,-0.325116
Syston,SYS,52.693111,-1.082611
Tackley,TAC,51.88118,-1.297202
Tadworth,TAD,51.29158,-0.235953
Taffs Well,TAF,51.540848,-3.263129
Tain,TAI,57.814651,-4.051826
Talsarnau,TAL,52.904289,-4.068213
Talybont,TLB,52.772507,-4.097534
Tal-Y-Cafn,TLC,53.228443,-3.818606
Tame Bridge Parkway,TAB,52.551022,-1.974899
Tamworth,TAM,52.63737,-1.687083
Tan-Y-Bwlch,TYB,52.994685,-3.937079
Taplow,TAP,51.523528,-0.681474
Tattenham Corner,TAT,51.308765,-0.242456
Taunton,TAU,51.023613,-3.102146
Taynuilt,TAY,56.430714,-5.23868
Teddington,TED,51.424294,-0.332965
Teesside Airport,TEA,54.518147,-1.425305
Teignmouth,TGM,50.547993,-3.494712
Telford Central,TFC,52.678764,-2.440744
Templecombe,TMC,51.001083,-2.417532
Tenby,TEN,51.672897,-4.707348
Teynham,TEY,51.333248,0.807944
Thames Ditton,THD,51.388424,-0.340027
Thanet Parkway,THP,51.330843,1.361777
Thatcham,THA,51.39384,-1.243048
Thatto Heath,THH,53.436585,-2.759419
The Hawthorns,THW,52.505165,-1.96313
The Lakes,TLK,52.359436,-1.845782
Theale,THE,51.433395,-1.074968
Theobalds Grove,TEO,51.692162,-0.035216
Thetford,TTF,52.419384,0.744109
Thirsk,THI,54.228489,-1.372573
Thornaby,TBY,54.559734,-1.301006
Thorne North,TNN,53.616329,-0.972006
Thorne South,TNS,53.602707,-0.957227
Thornford,THO,50.911377,-2.57889
Thornliebank,THB,55.810642,-4.312201
Thornton Abbey,TNA,53.653942,-0.323458
Thornton Heath,TTH,51.399181,-0.100981
Thorntonhall,THT,55.767746,-4.250674
Thorpe Bay,TPB,51.537586,0.762828
Thorpe Culvert,TPC,53.123108,0.19982
Thorpe-Le-Soken,TLS,51.847698,1.162258
Three Bridges,TBD,51.116863,-0.161162
Three Oaks,TOK,50.900658,0.612558
Thurgarton,THU,53.02924,-0.962157
Thurnscoe,THC,53.545033,-1.308775
Thurso,THS,58.590092,-3.527548
Thurston,TRS,52.249699,0.808347
Tilbury Riverside,TBR,51.451862,0.36467
Tilbury Town,TIL,51.462879,0.353724
Tile Hill,THL,52.394798,-1.594357
Tilehurst,TLH,51.471333,-1.029754
Tipton,TIP,52.53039,-2.065499
Tir-Phil,TIR,51.72086,-3.246424
Tisbury,TIS,51.060257,-2.078456
Tiverton Parkway,TVP,50.917477,-3.359979
Todmorden,TOD,53.713612,-2.099977
Tolworth,TOL,51.37677,-0.280098
Ton Pentre,TPN,51.647942,-3.485801
Tonbridge,TON,51.191132,0.269715
Tondu,TDU,51.548492,-3.595064
Tonfanau,TNF,52.613789,-4.123919
Tonypandy,TNP,51.61961,-3.450216
Tooting,TOO,51.419914,-0.16053
Topsham,TOP,50.685989,-3.4637
Torquay,TQY,50.461014,-3.544095
Torre,TRR,50.472664,-3.547292
Totnes,TOT,50.435623,-3.688317
Tottenham Court Road,TCR,51.5162,-0.1309
Tottenham Hale,TOM,51.588257,-0.059914
Totton,TTN,50.917953,-1.482138
Town Green,TWN,53.542807,-2.9045
Trafford Park,TRA,53.454899,-2.310836
Trefforest Estate,TRE,51.568417,-3.2913
Trefforest,TRF,51.591419,-3.325157
Trehafod,TRH,51.609661,-3.380569
Treherbert,TRB,51.671577,-3.53575
Treorchy,TRY,51.657593,-3.504922
Trimley,TRM,51.976509,1.318431
Tring,TRI,51.800327,-0.622253
Troed-Y-Rhiw,TRD,51.71257,-3.346066
Troon,TRN,55.543045,-4.654731
Trowbridge,TRO,51.319954,-2.215222
Truro,TRU,50.263603,-5.063017
Tulloch,TUL,56.883984,-4.701509
Tulse Hill,TUH,51.439713,-0.10506
Tunbridge Wells,TBW,51.130119,0.262435
Turkey Street,TUR,51.673481,-0.047594
Tutbury & Hatton,TUT,52.864342,-1.682085
Tweedbank,TWB,55.604394,-2.764936
Twickenham,TWI,51.450321,-0.329136
Twyford,TWY,51.475605,-0.86389
Ty Croes,TYC,53.222885,-4.476033
Ty Glas,TGS,51.519104,-3.193341
Tygwyn,TYG,52.893307,-4.079579
Tyndrum Lower,TYL,56.433407,-4.714873
Tyseley,TYS,52.453819,-1.839568
Tywyn,TYW,52.584663,-4.092974
Uckfield,UCK,50.968651,0.095048
Uddingston,UDD,55.823669,-4.086266
Ulceby,ULC,53.619457,-0.30063
Ulleskelf,ULL,53.85276,-1.215536
Ulverston,ULV,54.191872,-3.097327
Umberleigh,UMB,50.996704,-3.982228
University (Birmingham),UNI,52.451218,-1.936691
Uphall,UHA,55.919395,-3.499279
Upholland,UPL,53.528192,-2.741346
Upminster,UPM,51.559307,0.251938
Upper Halliford,UPH,51.413036,-0.429722
Upper Holloway,UHL,51.563652,-0.129293
Upper Tyndrum,UTY,56.434551,-4.7036
Upper Warlingham,UWL,51.307972,-0.077498
Upton,UPT,53.385712,-3.084013
Upwey,UPW,50.64838,-2.466731
Urmston,URM,53.448203,-2.35344
Uttoxeter,UTT,52.897041,-1.857258
Valley,VAL,53.281281,-4.563436
Vauxhall,VXH,51.485686,-0.124025
Virginia Water,VIR,51.401257,-0.562389
Waddon,WDO,51.367062,-0.116688
Wadhurst,WAD,51.07338,0.312483
Wainfleet,WFL,53.105373,0.234774
Wakefield Kirkgate,WKK,53.67897,-1.488254
Wakefield Westgate,WKF,53.681736,-1.506386
Walkden,WKD,53.520313,-2.395128
Wallasey Grove Road,WLG,53.428049,-3.06982
Wallasey Village,WLV,53.422695,-3.069901
Wallington,WLT,51.360424,-0.151431
Wallyford,WAF,55.942322,-3.013417
Walmer,WAM,51.203808,1.382819
Walsall,WSL,52.584282,-1.98521
Walsden,WDN,53.696056,-2.104719
Waltham Cross,WLC,51.684834,-0.026846
Walthamstow Central,WHC,51.583092,-0.019715
Walthamstow Queens Road,WMW,51.581367,-0.024113
Walton (Merseyside),WAO,53.456346,-2.965794
Walton-On-Thames,WAL,51.372364,-0.413873
Walton-On-The-Naze,WON,51.846603,1.268192
Wanborough,WAN,51.245129,-0.66756
Wandsworth Common,WSW,51.446072,-0.165239
Wandsworth Road,WWR,51.470829,-0.138332
Wandsworth Town,WNT,51.460812,-0.187679
Wanstead Park,WNP,51.551746,0.025089
Wapping,WPE,51.50372,-0.05629
Warblington,WBL,50.853382,-0.967163
Ware,WAR,51.808056,-0.028729
Wareham,WRM,50.692425,-2.114646
Wargrave,WGV,51.498217,-0.876589
Warminster,WMN,51.206722,-2.177467
Warnham,WNH,51.0933,-0.329193
Warrington Bank Quay,WBQ,53.385509,-2.602871
Warrington Central,WAC,53.391857,-2.592434
Warrington West,WAW,53.393744,-2.636929
Warwick,WRW,52.286861,-1.582155
Warwick Parkway,WRP,52.286268,-1.613493
Water Orton,WTO,52.518379,-1.743538
Waterbeach,WBC,52.26268,0.196555
Wateringbury,WTR,51.249214,0.423039
Waterloo (Merseyside),WLO,53.474968,-3.025532
Watford High Street,WFH,51.652743,-0.391656
Watford Junction,WFJ,51.663475,-0.396506
Watford North,WFN,51.675087,-0.3903
Watlington,WTG,52.672703,0.382736
Watton-At-Stone,WAS,51.857201,-0.119521
Waun-Gron Park,WNG,51.486366,-3.228492
Wavertree Technology Park,WAV,53.405132,-2.922964
Wedgwood,WED,52.951839,-2.171135
Wedgwood Lane,WER,52.95097,-2.17558
Weeley,WEE,51.852566,1.114661
Weeton,WET,53.923813,-1.581206
Welham Green,WMG,51.736324,-0.209989
Welling,WLI,51.464966,0.101872
Wellingborough,WEL,52.303867,-0.676496
Wellington (Shropshire),WLN,52.700928,-2.516438
Wells Next The Sea,WEN,52.95288,0.850696
Welshpool,WLP,52.656998,-3.141297
Welwyn Garden City,WGC,51.800957,-0.203081
Welwyn North,WLW,51.824165,-0.191992
Wem,WEM,52.856293,-2.718784
Wembley Central,WMB,51.551468,-0.296592
Wembley Stadium,WCX,51.553993,-0.284958
Wemyss Bay,WMS,55.876656,-4.888525
Wendover,WND,51.76193,-0.747778
Wennington,WNN,54.123531,-2.587517
West Allerton,WSA,53.36912,-2.907
West Brompton,WBP,51.487289,-0.195265
West Byfleet,WBY,51.339394,-0.505468
West Calder,WCL,55.853848,-3.567045
West Croydon,WCY,51.378517,-0.101844
West Drayton,WDT,51.509827,-0.472515
West Dulwich,WDU,51.440388,-0.090646
West Ealing,WEA,51.513123,-0.320792
West Ham,WEH,51.528709,0.005323
West Hampstead,WHD,51.54711,-0.191016
West Hampstead Thameslink,WHP,51.548644,-0.1924
West Horndon,WHR,51.56744,0.341807
West Kilbride,WKB,55.696842,-4.851365
West Kirby,WKI,53.373171,-3.183771
West Malling,WMA,51.291584,0.418098
West Norwood,WNW,51.431583,-0.102517
West Ruislip,WRU,51.569708,-0.437812
West Runton,WRN,52.935497,1.245516
West St Leonards,WLD,50.85368,0.540303
West Sutton,WSU,51.365734,-0.20437
West Wickham,WWI,51.381577,-0.015495
West Worthing,WWO,50.818111,-0.392983
Westbury,WSB,51.26693,-2.199202
Westcliff,WCF,51.537437,0.692146
Westcombe Park,WCB,51.484428,0.017787
Westenhanger,WHA,51.095444,1.037775
Wester Hailes,WTA,55.913727,-3.284654
Westerfield,WFI,52.081417,1.167082
Westerton,WES,55.905479,-4.335444
Westgate-On-Sea,WGA,51.381386,1.338402
Westhoughton,WHG,53.555775,-2.523773
Weston Milton,WNM,51.348579,-2.942236
Weston-Super-Mare,WSM,51.34454,-2.972301
Wetheral,WRL,54.883308,-2.833897
Weybridge,WYB,51.361248,-0.457352
Weymouth,WEY,50.61515,-2.455103
Whaley Bridge,WBR,53.330402,-1.983448
Whalley,WHE,53.824165,-2.412186
Whatstandwell,WTS,53.083076,-1.504312
Whifflet,WFF,55.852596,-4.022313
Whimple,WHM,50.768253,-3.354243
Whinhill,WNL,55.938396,-4.746744
Whiston,WHN,53.413932,-2.796407
Whitby,WTB,54.484615,-0.615376
Whitchurch (Cardiff),WHT,51.520599,-3.222209
Whitchurch (Hampshire),WCH,51.237358,-1.338183
Whitchurch (Shropshire),WTC,52.968048,-2.671497
White Hart Lane,WHL,51.604622,-0.070759
White Notley,WNY,51.839069,0.596874
Whitechapel,ZLW,51.519091,-0.061404
Whitecraigs,WCR,55.790001,-4.310977
Whitehaven,WTH,54.552864,-3.586843
Whitland,WTL,51.817989,-4.614454
Whitley Bridge,WBD,53.698685,-1.159331
Whitlocks End,WTE,52.3918,-1.851545
Whitstable,WHI,51.358204,1.033577
Whittlesea,WLE,52.549522,-0.116602
Whittlesford Parkway,WLF,52.104092,0.165388
Whitton,WTN,51.447109,-0.356607
Whitwell,WWL,53.280987,-1.20055
Whyteleafe South,WHS,51.303474,-0.077684
Whyteleafe,WHY,51.309834,-0.081725
Wick,WCK,58.441788,-3.097965
Wickford,WIC,51.615025,0.519052
Wickham Market,WCM,52.151421,1.398685
Widdrington,WDD,55.241428,-1.61623
Widnes,WID,53.37849,-2.733556
Widney Manor,WMR,52.396175,-1.773647
Wigan North Western,WGN,53.543564,-2.632287
Wigan Wallgate,WGW,53.545353,-2.633814
Wigton,WGT,54.829365,-3.164373
Wildmill,WMI,51.520824,-3.579684
Willesden Junction,WIJ,51.5322,-0.2435
Williamwood,WLM,55.79398,-4.290462
Willington,WIL,52.854069,-1.563356
Wilmcote,WMC,52.222618,-1.755493
Wilmslow,WML,53.326595,-2.225177
Wilnecote,WNE,52.610817,-1.679499
Wimbledon Chase,WBO,51.409958,-0.214138
Wimbledon,WIM,51.421528,-0.206496
Winchelsea,WSE,50.933716,0.701241
Winchester,WIN,51.067303,-1.320628
Winchfield,WNF,51.284481,-0.90733
Winchmore Hill,WIH,51.633896,-0.101314
Windermere,WDM,54.379745,-2.904339
Windsor & Eton Central,WNC,51.48275,-0.608806
Windsor & Eton Riverside,WNR,51.486309,-0.605804
Winnersh,WNS,51.430779,-0.87795
Winnersh Triangle,WTI,51.437233,-0.895052
Winsford,WSF,53.190505,-2.494669
Wishaw,WSH,55.772346,-3.927267
Witham,WTM,51.805702,0.641373
Witley,WTY,51.133362,-0.645059
Witton,WTT,52.51141,-1.883566
Wivelsfield,WVF,50.964249,-0.121633
Wivenhoe,WIV,51.855789,0.955116
Woburn Sands,WOB,52.01817,-0.654073
Woking,WOK,51.31847,-0.557814
Wokingham,WKM,51.411556,-0.842473
Woldingham,WOH,51.289547,-0.051013
Wolverhampton,WVH,52.587818,-2.119529
Wolverton,WOL,52.064861,-0.80377
Wombwell,WOM,53.517754,-1.417811
Wood End,WDE,52.344143,-1.844372
Wood Street,WST,51.587284,-0.00221
Woodbridge,WDB,52.089855,1.31807
Woodgrange Park,WGR,51.548706,0.04514
Woodhall,WDL,55.931339,-4.655614
Woodhouse,WDH,53.364639,-1.358278
Woodlesford,WDS,53.756969,-1.443328
Woodley,WLY,53.429245,-2.093275
Woodmansterne,WME,51.31012,-0.154887
Woodsmoor,WSR,53.386055,-2.1413
Wool,WOO,50.68148,-2.220775
Woolston,WLS,50.898556,-1.37713
Woolwich,WWC,51.491578,0.071819
Woolwich Arsenal,WWA,51.489815,0.069883
Woolwich Dockyard,WWD,51.49099,0.054083
Wootton Wawen,WWW,52.265831,-1.784561
Worcester Foregate Street,WOF,52.194801,-2.220885
Worcester Park,WCP,51.381649,-0.245415
Worcestershire Parkway,WOP,52.15622,-2.1597
Worcester Shrub Hill,WOS,52.194817,-2.210642
Workington,WKG,54.645061,-3.558626
Worksop,WRK,53.311005,-1.123444
Worle,WOR,51.357995,-2.909703
Worplesdon,WPL,51.288189,-0.581705
Worstead,WRT,52.777256,1.404282
Worthing,WRH,50.818768,-0.375924
Wrabness,WRB,51.939228,1.17014
Wraysbury,WRY,51.457661,-0.541906
Wrenbury,WRE,53.019311,-2.596089
Wressle,WRS,53.773212,-0.924169
Wrexham Central,WXC,53.044876,-2.996385
Wrexham General,WRX,53.05022,-3.002467
Wye,WYE,51.185463,0.929188
Wylam,WYM,54.974991,-1.814058
Wylde Green,WYL,52.545599,-1.831461
Wymondham,WMD,52.564804,1.11769
Wythall,WYT,52.380131,-1.866284
Yalding,YAL,51.226067,0.4118
Yardley Wood,YRD,52.421478,-1.854396
Yarm,YRM,54.506115,-1.35597
Yarmouth (Isle of Wight),YMH,50.70765,-1.50002
Yate,YAE,51.540554,-2.432541
Yatton,YAT,51.390965,-2.827815
Yeoford,YEO,50.77684,-3.726109
Yeovil Junction,YVJ,50.924686,-2.613198
Yeovil Pen Mill,YVP,50.944466,-2.613461
Yetminster,YET,50.896114,-2.573004
Ynyswen,YNW,51.668095,-3.526959
Yoker,YOK,55.892792,-4.387464
York,YRK,53.957966,-1.093159
Yorton,YRT,52.809009,-2.73645
Ystrad Mynach,YSM,51.640884,-3.241342
Ystrad Rhondda,YSR,51.644478,-3.47557
